Cod. Departamento,Nombre Departamento,Cod. Municipio,Nombre Municipio,Tipo,LATITUD,LONGITUD
5,ANTIOQUIA,5001,MEDELLÍN,Municipio,6.257590259,-75.611031065
5,ANTIOQUIA,5002,ABEJORRAL,Municipio,5.803728154,-75.438473525
5,ANTIOQUIA,5004,ABRIAQUÍ,Municipio,6.627569378,-76.085977561
5,ANTIOQUIA,5021,ALEJANDRÍA,Municipio,6.365534125,-75.090597022
5,ANTIOQUIA,5030,AMAGÁ,Municipio,6.032921994,-75.708003098
5,ANTIOQUIA,5031,AMALFI,Municipio,6.977788843,-74.981239298
5,ANTIOQUIA,5034,ANDES,Municipio,5.604993248,-75.941283908
5,ANTIOQUIA,5036,ANGELÓPOLIS,Municipio,6.121430303,-75.715949663
5,ANTIOQUIA,5038,ANGOSTURA,Municipio,6.861498764,-75.358315997
5,ANTIOQUIA,5040,ANORÍ,Municipio,7.193110778,-75.108489539
5,ANTIOQUIA,5042,SANTA FÉ DE ANTIOQUIA,Municipio,6.535711576,-75.904266579
5,ANTIOQUIA,5044,ANZÁ,Municipio,6.293546613,-75.917369269
5,ANTIOQUIA,5045,APARTADÓ,Municipio,7.86047815,-76.582362643
5,ANTIOQUIA,5051,ARBOLETES,Municipio,8.611395262,-76.414783173
5,ANTIOQUIA,5055,ARGELIA,Municipio,5.708114524,-75.094697954
5,ANTIOQUIA,5059,ARMENIA,Municipio,6.163683758,-75.809955281
5,ANTIOQUIA,5079,BARBOSA,Municipio,6.443417935,-75.329240854
5,ANTIOQUIA,5086,BELMIRA,Municipio,6.665853953,-75.68621659
5,ANTIOQUIA,5088,BELLO,Municipio,6.358841086,-75.589735878
5,ANTIOQUIA,5091,BETANIA,Municipio,5.727081285,-75.986891074
5,ANTIOQUIA,5093,BETULIA,Municipio,6.185783612,-75.956492463
5,ANTIOQUIA,5101,CIUDAD BOLÍVAR,Municipio,5.840995666,-76.010652526
5,ANTIOQUIA,5107,BRICEÑO,Municipio,7.111788462,-75.562234738
5,ANTIOQUIA,5113,BURITICÁ,Municipio,6.80906489,-75.912065947
5,ANTIOQUIA,5120,CÁCERES,Municipio,7.665155105,-75.223697441
5,ANTIOQUIA,5125,CAICEDO,Municipio,6.423463639,-75.99351498
5,ANTIOQUIA,5129,CALDAS,Municipio,6.054446841,-75.626426743
5,ANTIOQUIA,5134,CAMPAMENTO,Municipio,7.036017478,-75.287661778
5,ANTIOQUIA,5138,CAÑASGORDAS,Municipio,6.814950023,-76.02689632
5,ANTIOQUIA,5142,CARACOLÍ,Municipio,6.33797388,-74.733548173
5,ANTIOQUIA,5145,CARAMANTA,Municipio,5.555275296,-75.630820964
5,ANTIOQUIA,5147,CAREPA,Municipio,7.757967437,-76.643746573
5,ANTIOQUIA,5148,EL CARMEN DE VIBORAL,Municipio,5.978078841,-75.263536102
5,ANTIOQUIA,5150,CAROLINA,Municipio,6.754821442,-75.305906539
5,ANTIOQUIA,5154,CAUCASIA,Municipio,7.867941792,-75.035018239
5,ANTIOQUIA,5172,CHIGORODÓ,Municipio,7.631665644,-76.639642127
5,ANTIOQUIA,5190,CISNEROS,Municipio,6.550065431,-75.08254116
5,ANTIOQUIA,5197,COCORNÁ,Municipio,6.005593074,-75.160154033
5,ANTIOQUIA,5206,CONCEPCIÓN,Municipio,6.376106187,-75.217859014
5,ANTIOQUIA,5209,CONCORDIA,Municipio,6.057468678,-75.900146783
5,ANTIOQUIA,5212,COPACABANA,Municipio,6.351882893,-75.50075633
5,ANTIOQUIA,5234,DABEIBA,Municipio,6.992243782,-76.314263284
5,ANTIOQUIA,5237,DONMATÍAS,Municipio,6.492403905,-75.422276872
5,ANTIOQUIA,5240,EBÉJICO,Municipio,6.326444922,-75.783311748
5,ANTIOQUIA,5250,EL BAGRE,Municipio,7.704633351,-74.664277263
5,ANTIOQUIA,5264,ENTRERRÍOS,Municipio,6.594656004,-75.559130833
5,ANTIOQUIA,5266,ENVIGADO,Municipio,6.154394922,-75.546867788
5,ANTIOQUIA,5282,FREDONIA,Municipio,5.887702934,-75.679262419
5,ANTIOQUIA,5284,FRONTINO,Municipio,6.691364773,-76.33199656
5,ANTIOQUIA,5306,GIRALDO,Municipio,6.663095863,-75.948046628
5,ANTIOQUIA,5308,GIRARDOTA,Municipio,6.379745895,-75.447957442
5,ANTIOQUIA,5310,GÓMEZ PLATA,Municipio,6.709562839,-75.192702912
5,ANTIOQUIA,5313,GRANADA,Municipio,6.123380721,-75.127636463
5,ANTIOQUIA,5315,GUADALUPE,Municipio,6.861576325,-75.225913027
5,ANTIOQUIA,5318,GUARNE,Municipio,6.266625703,-75.437308008
5,ANTIOQUIA,5321,GUATAPÉ,Municipio,6.236329826,-75.156512723
5,ANTIOQUIA,5347,HELICONIA,Municipio,6.214511788,-75.749710019
5,ANTIOQUIA,5353,HISPANIA,Municipio,5.797039002,-75.906692028
5,ANTIOQUIA,5360,ITAGÜÍ,Municipio,6.179279438,-75.614203699
5,ANTIOQUIA,5361,ITUANGO,Municipio,7.341549718,-75.678422773
5,ANTIOQUIA,5364,JARDÍN,Municipio,5.574444339,-75.818425748
5,ANTIOQUIA,5368,JERICÓ,Municipio,5.769820536,-75.764882556
5,ANTIOQUIA,5376,LA CEJA,Municipio,5.992524843,-75.430869347
5,ANTIOQUIA,5380,LA ESTRELLA,Municipio,6.137595883,-75.648954991
5,ANTIOQUIA,5390,LA PINTADA,Municipio,5.746583958,-75.60220206
5,ANTIOQUIA,5400,LA UNIÓN,Municipio,5.940434685,-75.354290227
5,ANTIOQUIA,5411,LIBORINA,Municipio,6.723990935,-75.783000458
5,ANTIOQUIA,5425,MACEO,Municipio,6.534573585,-74.714108541
5,ANTIOQUIA,5440,MARINILLA,Municipio,6.18520515,-75.304879329
5,ANTIOQUIA,5467,MONTEBELLO,Municipio,5.916853903,-75.519726926
5,ANTIOQUIA,5475,MURINDÓ,Municipio,6.828773855,-76.708613491
5,ANTIOQUIA,5480,MUTATÁ,Municipio,7.329557848,-76.463065695
5,ANTIOQUIA,5483,NARIÑO,Municipio,5.581275312,-75.194570185
5,ANTIOQUIA,5490,NECOCLÍ,Municipio,8.493728551,-76.676995884
5,ANTIOQUIA,5495,NECHÍ,Municipio,7.983477394,-74.65844186
5,ANTIOQUIA,5501,OLAYA,Municipio,6.611418083,-75.775670969
5,ANTIOQUIA,5541,PEÑOL,Municipio,6.232396368,-75.223509055
5,ANTIOQUIA,5543,PEQUE,Municipio,7.044180058,-75.889688434
5,ANTIOQUIA,5576,PUEBLORRICO,Municipio,5.80970186,-75.860766666
5,ANTIOQUIA,5579,PUERTO BERRÍO,Municipio,6.481922267,-74.528742101
5,ANTIOQUIA,5585,PUERTO NARE,Municipio,6.126539139,-74.703177217
5,ANTIOQUIA,5591,PUERTO TRIUNFO,Municipio,5.954830151,-74.686191798
5,ANTIOQUIA,5604,REMEDIOS,Municipio,6.997267375,-74.558656518
5,ANTIOQUIA,5607,RETIRO,Municipio,6.053444254,-75.515738045
5,ANTIOQUIA,5615,RIONEGRO,Municipio,6.150785807,-75.410760524
5,ANTIOQUIA,5628,SABANALARGA,Municipio,6.901000506,-75.792227535
5,ANTIOQUIA,5631,SABANETA,Municipio,6.138305183,-75.608805993
5,ANTIOQUIA,5642,SALGAR,Municipio,5.970502334,-75.981372511
5,ANTIOQUIA,5647,SAN ANDRÉS DE CUERQUÍA,Municipio,6.918427233,-75.6657758
5,ANTIOQUIA,5649,SAN CARLOS,Municipio,6.193789659,-74.90732769
5,ANTIOQUIA,5652,SAN FRANCISCO,Municipio,5.840093731,-74.98176334
5,ANTIOQUIA,5656,SAN JERÓNIMO,Municipio,6.438300409,-75.703107272
5,ANTIOQUIA,5658,SAN JOSÉ DE LA MONTAÑA,Municipio,6.823258913,-75.677708262
5,ANTIOQUIA,5659,SAN JUAN DE URABÁ,Municipio,8.707141583,-76.532482343
5,ANTIOQUIA,5660,SAN LUIS,Municipio,6.024205956,-75.007667403
5,ANTIOQUIA,5664,SAN PEDRO DE LOS MILAGROS,Municipio,6.458666308,-75.562483898
5,ANTIOQUIA,5665,SAN PEDRO DE URABÁ,Municipio,8.37915695,-76.316642334
5,ANTIOQUIA,5667,SAN RAFAEL,Municipio,6.31074453,-74.998586516
5,ANTIOQUIA,5670,SAN ROQUE,Municipio,6.466165211,-74.945073196
5,ANTIOQUIA,5674,SAN VICENTE FERRER,Municipio,6.310387522,-75.327401628
5,ANTIOQUIA,5679,SANTA BÁRBARA,Municipio,5.878984956,-75.583303711
5,ANTIOQUIA,5686,SANTA ROSA DE OSOS,Municipio,6.675827825,-75.438143332
5,ANTIOQUIA,5690,SANTO DOMINGO,Municipio,6.481044132,-75.142600968
5,ANTIOQUIA,5697,EL SANTUARIO,Municipio,6.124209495,-75.252122776
5,ANTIOQUIA,5736,SEGOVIA,Municipio,7.26692339,-74.621639263
5,ANTIOQUIA,5756,SONSÓN,Municipio,5.826388779,-74.836376225
5,ANTIOQUIA,5761,SOPETRÁN,Municipio,6.520164552,-75.745809033
5,ANTIOQUIA,5789,TÁMESIS,Municipio,5.673758571,-75.709799743
5,ANTIOQUIA,5790,TARAZÁ,Municipio,7.488875998,-75.401894377
5,ANTIOQUIA,5792,TARSO,Municipio,5.871064557,-75.828711443
5,ANTIOQUIA,5809,TITIRIBÍ,Municipio,6.058349971,-75.799660047
5,ANTIOQUIA,5819,TOLEDO,Municipio,7.016397069,-75.71363382
5,ANTIOQUIA,5837,TURBO,Municipio,8.173851745,-76.574037701
5,ANTIOQUIA,5842,URAMITA,Municipio,6.913916924,-76.133185136
5,ANTIOQUIA,5847,URRAO,Municipio,6.33534134,-76.259064819
5,ANTIOQUIA,5854,VALDIVIA,Municipio,7.265404213,-75.400945015
5,ANTIOQUIA,5856,VALPARAÍSO,Municipio,5.651937802,-75.630834123
5,ANTIOQUIA,5858,VEGACHÍ,Municipio,6.836535122,-74.754030203
5,ANTIOQUIA,5861,VENECIA,Municipio,5.956576355,-75.777224226
5,ANTIOQUIA,5873,VIGÍA DEL FUERTE,Municipio,6.453351334,-76.695048017
5,ANTIOQUIA,5885,YALÍ,Municipio,6.716870679,-74.75565002
5,ANTIOQUIA,5887,YARUMAL,Municipio,6.9881309,-75.454399574
5,ANTIOQUIA,5890,YOLOMBÓ,Municipio,6.64442786,-75.029902658
5,ANTIOQUIA,5893,YONDÓ,Municipio,6.925159318,-74.158240414
5,ANTIOQUIA,5895,ZARAGOZA,Municipio,7.474004006,-74.858483258
8,ATLÁNTICO,8001,BARRANQUILLA,Municipio,10.98152051,-74.827715439
8,ATLÁNTICO,8078,BARANOA,Municipio,10.793293019,-74.922194906
8,ATLÁNTICO,8137,CAMPO DE LA CRUZ,Municipio,10.38405079,-74.884660393
8,ATLÁNTICO,8141,CANDELARIA,Municipio,10.489020471,-74.877566268
8,ATLÁNTICO,8296,GALAPA,Municipio,10.897719907,-74.887087876
8,ATLÁNTICO,8372,JUAN DE ACOSTA,Municipio,10.823065032,-75.078419039
8,ATLÁNTICO,8421,LURUACO,Municipio,10.635031161,-75.15402741
8,ATLÁNTICO,8433,MALAMBO,Municipio,10.848288642,-74.806175549
8,ATLÁNTICO,8436,MANATÍ,Municipio,10.454145546,-74.984773669
8,ATLÁNTICO,8520,PALMAR DE VARELA,Municipio,10.694812078,-74.770150903
8,ATLÁNTICO,8549,PIOJÓ,Municipio,10.740789594,-75.143660335
8,ATLÁNTICO,8558,POLONUEVO,Municipio,10.767401414,-74.854148436
8,ATLÁNTICO,8560,PONEDERA,Municipio,10.594651021,-74.798473158
8,ATLÁNTICO,8573,PUERTO COLOMBIA,Municipio,11.004422597,-74.907405804
8,ATLÁNTICO,8606,REPELÓN,Municipio,10.507570513,-75.121880527
8,ATLÁNTICO,8634,SABANAGRANDE,Municipio,10.798940151,-74.768796603
8,ATLÁNTICO,8638,SABANALARGA,Municipio,10.622507773,-74.955105416
8,ATLÁNTICO,8675,SANTA LUCÍA,Municipio,10.35364192,-74.965411787
8,ATLÁNTICO,8685,SANTO TOMÁS,Municipio,10.755626561,-74.78726468
8,ATLÁNTICO,8758,SOLEDAD,Municipio,10.906906595,-74.778424903
8,ATLÁNTICO,8770,SUAN,Municipio,10.310850347,-74.907133084
8,ATLÁNTICO,8832,TUBARÁ,Municipio,10.907219384,-74.98423293
8,ATLÁNTICO,8849,USIACURÍ,Municipio,10.740522657,-74.982674126
11,"BOGOTÁ, D.C.",11001,"BOGOTÁ, D.C.",Municipio,4.316107698,-74.181072702
13,BOLÍVAR,13001,CARTAGENA DE INDIAS,Municipio,10.463433617,-75.45889915
13,BOLÍVAR,13006,ACHÍ,Municipio,8.622943262,-74.478059448
13,BOLÍVAR,13030,ALTOS DEL ROSARIO,Municipio,8.757468863,-74.195158106
13,BOLÍVAR,13042,ARENAL,Municipio,8.362996158,-74.103019049
13,BOLÍVAR,13052,ARJONA,Municipio,10.164221225,-75.371217884
13,BOLÍVAR,13062,ARROYOHONDO,Municipio,10.241718047,-75.026904215
13,BOLÍVAR,13074,BARRANCO DE LOBA,Municipio,8.837077654,-74.279665305
13,BOLÍVAR,13140,CALAMAR,Municipio,10.155170977,-74.999959492
13,BOLÍVAR,13160,CANTAGALLO,Municipio,7.239229146,-74.100140429
13,BOLÍVAR,13188,CICUCO,Municipio,9.235268598,-74.688409615
13,BOLÍVAR,13212,CÓRDOBA,Municipio,9.540047515,-74.894456346
13,BOLÍVAR,13222,CLEMENCIA,Municipio,10.556636955,-75.314466528
13,BOLÍVAR,13244,EL CARMEN DE BOLÍVAR,Municipio,9.699819876,-75.157935726
13,BOLÍVAR,13248,EL GUAMO,Municipio,10.034836723,-74.928110717
13,BOLÍVAR,13268,EL PEÑÓN,Municipio,8.864818786,-73.912301472
13,BOLÍVAR,13300,HATILLO DE LOBA,Municipio,8.981717133,-74.090719016
13,BOLÍVAR,13430,MAGANGUÉ,Municipio,9.053135895,-74.705393181
13,BOLÍVAR,13433,MAHATES,Municipio,10.178213908,-75.17978161
13,BOLÍVAR,13440,MARGARITA,Municipio,9.054601889,-74.225847059
13,BOLÍVAR,13442,MARÍA LA BAJA,Municipio,9.976017168,-75.343802649
13,BOLÍVAR,13458,MONTECRISTO,Municipio,8.01710024,-74.463429112
13,BOLÍVAR,13468,SANTA CRUZ DE MOMPOX,Municipio,9.142512064,-74.545199057
13,BOLÍVAR,13473,MORALES,Municipio,8.253700061,-73.971345899
13,BOLÍVAR,13490,NOROSÍ,Municipio,8.50613476,-74.115889115
13,BOLÍVAR,13549,PINILLOS,Municipio,8.886315511,-74.408884758
13,BOLÍVAR,13580,REGIDOR,Municipio,8.672628558,-73.914506788
13,BOLÍVAR,13600,RÍO VIEJO,Municipio,8.559982465,-73.902986677
13,BOLÍVAR,13620,SAN CRISTÓBAL,Municipio,10.369720871,-75.073338352
13,BOLÍVAR,13647,SAN ESTANISLAO,Municipio,10.364681919,-75.205234868
13,BOLÍVAR,13650,SAN FERNANDO,Municipio,9.081483143,-74.371866466
13,BOLÍVAR,13654,SAN JACINTO,Municipio,9.835362011,-75.106092009
13,BOLÍVAR,13655,SAN JACINTO DEL CAUCA,Municipio,8.212463202,-74.75082
13,BOLÍVAR,13657,SAN JUAN NEPOMUCENO,Municipio,9.967957823,-75.065719587
13,BOLÍVAR,13667,SAN MARTÍN DE LOBA,Municipio,8.816088444,-74.005999668
13,BOLÍVAR,13670,SAN PABLO,Municipio,7.507922612,-74.103569774
13,BOLÍVAR,13673,SANTA CATALINA,Municipio,10.649812776,-75.26548463
13,BOLÍVAR,13683,SANTA ROSA,Municipio,10.469207257,-75.361160527
13,BOLÍVAR,13688,SANTA ROSA DEL SUR,Municipio,7.772519173,-74.262728426
13,BOLÍVAR,13744,SIMITÍ,Municipio,7.851315534,-73.983716091
13,BOLÍVAR,13760,SOPLAVIENTO,Municipio,10.332090314,-75.116992257
13,BOLÍVAR,13780,TALAIGUA NUEVO,Municipio,9.269516705,-74.586952326
13,BOLÍVAR,13810,TIQUISIO,Municipio,8.492345176,-74.296761387
13,BOLÍVAR,13836,TURBACO,Municipio,10.353107564,-75.379715411
13,BOLÍVAR,13838,TURBANA,Municipio,10.252769289,-75.432702985
13,BOLÍVAR,13873,VILLANUEVA,Municipio,10.444913198,-75.267362754
13,BOLÍVAR,13894,ZAMBRANO,Municipio,9.745147021,-74.880670367
15,BOYACÁ,15001,TUNJA,Municipio,5.518472615,-73.378018556
15,BOYACÁ,15022,ALMEIDA,Municipio,4.954825081,-73.388134245
15,BOYACÁ,15047,AQUITANIA,Municipio,5.437416373,-72.871494711
15,BOYACÁ,15051,ARCABUCO,Municipio,5.73526424,-73.427931091
15,BOYACÁ,15087,BELÉN,Municipio,6.005059265,-72.893698873
15,BOYACÁ,15090,BERBEO,Municipio,5.230936356,-73.127319437
15,BOYACÁ,15092,BETÉITIVA,Municipio,5.920858933,-72.848578763
15,BOYACÁ,15097,BOAVITA,Municipio,6.337515626,-72.62021239
15,BOYACÁ,15104,BOYACÁ,Municipio,5.439856216,-73.381369938
15,BOYACÁ,15106,BRICEÑO,Municipio,5.673229265,-73.926607047
15,BOYACÁ,15109,BUENAVISTA,Municipio,5.489399419,-73.950662546
15,BOYACÁ,15114,BUSBANZÁ,Municipio,5.843483731,-72.87574623
15,BOYACÁ,15131,CALDAS,Municipio,5.575990669,-73.880575077
15,BOYACÁ,15135,CAMPOHERMOSO,Municipio,5.006862536,-73.144670302
15,BOYACÁ,15162,CERINZA,Municipio,5.962013698,-72.964472884
15,BOYACÁ,15172,CHINAVITA,Municipio,5.202971639,-73.340480736
15,BOYACÁ,15176,CHIQUINQUIRÁ,Municipio,5.622488024,-73.804245312
15,BOYACÁ,15180,CHISCAS,Municipio,6.68911806,-72.417956748
15,BOYACÁ,15183,CHITA,Municipio,6.091468485,-72.439031738
15,BOYACÁ,15185,CHITARAQUE,Municipio,5.984394625,-73.425823751
15,BOYACÁ,15187,CHIVATÁ,Municipio,5.556830465,-73.260617153
15,BOYACÁ,15189,CIÉNEGA,Municipio,5.393059633,-73.282057716
15,BOYACÁ,15204,CÓMBITA,Municipio,5.667822366,-73.321370491
15,BOYACÁ,15212,COPER,Municipio,5.452461072,-74.059965781
15,BOYACÁ,15215,CORRALES,Municipio,5.82454582,-72.845448448
15,BOYACÁ,15218,COVARACHÍA,Municipio,6.519521476,-72.740204209
15,BOYACÁ,15223,CUBARÁ,Municipio,6.886954878,-72.181562849
15,BOYACÁ,15224,CUCAITA,Municipio,5.527104109,-73.445986459
15,BOYACÁ,15226,CUÍTIVA,Municipio,5.58775449,-72.939536863
15,BOYACÁ,15232,CHÍQUIZA,Municipio,5.643075648,-73.445623907
15,BOYACÁ,15236,CHIVOR,Municipio,4.871181606,-73.361423792
15,BOYACÁ,15238,DUITAMA,Municipio,5.890602515,-73.067094843
15,BOYACÁ,15244,EL COCUY,Municipio,6.353363177,-72.419237519
15,BOYACÁ,15248,EL ESPINO,Municipio,6.508240556,-72.480496247
15,BOYACÁ,15272,FIRAVITOBA,Municipio,5.67367659,-73.019833516
15,BOYACÁ,15276,FLORESTA,Municipio,5.85899211,-72.924998265
15,BOYACÁ,15293,GACHANTIVÁ,Municipio,5.744105975,-73.542655196
15,BOYACÁ,15296,GÁMEZA,Municipio,5.799050256,-72.729647651
15,BOYACÁ,15299,GARAGOA,Municipio,5.089466651,-73.314302722
15,BOYACÁ,15317,GUACAMAYAS,Municipio,6.445438546,-72.516353323
15,BOYACÁ,15322,GUATEQUE,Municipio,5.01450831,-73.488123516
15,BOYACÁ,15325,GUAYATÁ,Municipio,4.931424341,-73.496633724
15,BOYACÁ,15332,GÜICÁN DE LA SIERRA,Municipio,6.566991765,-72.255993335
15,BOYACÁ,15362,IZA,Municipio,5.617366016,-72.969865044
15,BOYACÁ,15367,JENESANO,Municipio,5.38916272,-73.400870207
15,BOYACÁ,15368,JERICÓ,Municipio,6.155633662,-72.585230926
15,BOYACÁ,15377,LABRANZAGRANDE,Municipio,5.541378132,-72.590384601
15,BOYACÁ,15380,LA CAPILLA,Municipio,5.113167102,-73.459237077
15,BOYACÁ,15401,LA VICTORIA,Municipio,5.507008121,-74.241627269
15,BOYACÁ,15403,LA UVITA,Municipio,6.265126191,-72.555510848
15,BOYACÁ,15407,VILLA DE LEYVA,Municipio,5.665762424,-73.514948003
15,BOYACÁ,15425,MACANAL,Municipio,4.980176495,-73.294136946
15,BOYACÁ,15442,MARIPÍ,Municipio,5.569810633,-74.020031272
15,BOYACÁ,15455,MIRAFLORES,Municipio,5.150953297,-73.178967217
15,BOYACÁ,15464,MONGUA,Municipio,5.710937981,-72.634028752
15,BOYACÁ,15466,MONGUÍ,Municipio,5.697352228,-72.832986642
15,BOYACÁ,15469,MONIQUIRÁ,Municipio,5.863370485,-73.558525378
15,BOYACÁ,15476,MOTAVITA,Municipio,5.606192449,-73.377342665
15,BOYACÁ,15480,MUZO,Municipio,5.539429272,-74.111771391
15,BOYACÁ,15491,NOBSA,Municipio,5.778759851,-72.932683237
15,BOYACÁ,15494,NUEVO COLÓN,Municipio,5.354701485,-73.448734241
15,BOYACÁ,15500,OICATÁ,Municipio,5.610787844,-73.279919053
15,BOYACÁ,15507,OTANCHE,Municipio,5.753787787,-74.197194226
15,BOYACÁ,15511,PACHAVITA,Municipio,5.148323877,-73.399512192
15,BOYACÁ,15514,PÁEZ,Municipio,5.095211035,-73.004358626
15,BOYACÁ,15516,PAIPA,Municipio,5.762027786,-73.137774423
15,BOYACÁ,15518,PAJARITO,Municipio,5.382328949,-72.696726742
15,BOYACÁ,15522,PANQUEBA,Municipio,6.443299758,-72.461824312
15,BOYACÁ,15531,PAUNA,Municipio,5.688801559,-74.005041215
15,BOYACÁ,15533,PAYA,Municipio,5.621242742,-72.369290598
15,BOYACÁ,15537,PAZ DE RÍO,Municipio,6.030008561,-72.759880177
15,BOYACÁ,15542,PESCA,Municipio,5.498483324,-73.07837993
15,BOYACÁ,15550,PISBA,Municipio,5.768131812,-72.439932321
15,BOYACÁ,15572,PUERTO BOYACÁ,Municipio,5.953466654,-74.452858102
15,BOYACÁ,15580,QUÍPAMA,Municipio,5.595729831,-74.268570671
15,BOYACÁ,15599,RAMIRIQUÍ,Municipio,5.319934092,-73.310778996
15,BOYACÁ,15600,RÁQUIRA,Municipio,5.496268621,-73.628944376
15,BOYACÁ,15621,RONDÓN,Municipio,5.379947879,-73.196509947
15,BOYACÁ,15632,SABOYÁ,Municipio,5.699926051,-73.747994656
15,BOYACÁ,15638,SÁCHICA,Municipio,5.573464882,-73.543102003
15,BOYACÁ,15646,SAMACÁ,Municipio,5.47053997,-73.521175604
15,BOYACÁ,15660,SAN EDUARDO,Municipio,5.234614686,-73.049140669
15,BOYACÁ,15664,SAN JOSÉ DE PARE,Municipio,5.994154088,-73.543865224
15,BOYACÁ,15667,SAN LUIS DE GACENO,Municipio,4.798203543,-73.133970184
15,BOYACÁ,15673,SAN MATEO,Municipio,6.395388812,-72.551848623
15,BOYACÁ,15676,SAN MIGUEL DE SEMA,Municipio,5.532326922,-73.747158978
15,BOYACÁ,15681,SAN PABLO DE BORBUR,Municipio,5.677345066,-74.114037486
15,BOYACÁ,15686,SANTANA,Municipio,6.057614971,-73.489748282
15,BOYACÁ,15690,SANTA MARÍA,Municipio,4.823002556,-73.253775062
15,BOYACÁ,15693,SANTA ROSA DE VITERBO,Municipio,5.892950301,-72.991727804
15,BOYACÁ,15696,SANTA SOFÍA,Municipio,5.731602716,-73.603662869
15,BOYACÁ,15720,SATIVANORTE,Municipio,6.13211793,-72.730324154
15,BOYACÁ,15723,SATIVASUR,Municipio,6.083405978,-72.724108145
15,BOYACÁ,15740,SIACHOQUE,Municipio,5.498747701,-73.216817778
15,BOYACÁ,15753,SOATÁ,Municipio,6.323088045,-72.696040893
15,BOYACÁ,15755,SOCOTÁ,Municipio,5.906513772,-72.536463605
15,BOYACÁ,15757,SOCHA,Municipio,5.960498836,-72.682397841
15,BOYACÁ,15759,SOGAMOSO,Municipio,5.646672053,-72.870956503
15,BOYACÁ,15761,SOMONDOCO,Municipio,4.970974064,-73.428787852
15,BOYACÁ,15762,SORA,Municipio,5.580573191,-73.443718375
15,BOYACÁ,15763,SOTAQUIRÁ,Municipio,5.763010553,-73.24352232
15,BOYACÁ,15764,SORACÁ,Municipio,5.494890461,-73.318999965
15,BOYACÁ,15774,SUSACÓN,Municipio,6.215200578,-72.715756341
15,BOYACÁ,15776,SUTAMARCHÁN,Municipio,5.640030759,-73.625987727
15,BOYACÁ,15778,SUTATENZA,Municipio,5.030711335,-73.412244005
15,BOYACÁ,15790,TASCO,Municipio,5.882294313,-72.726268173
15,BOYACÁ,15798,TENZA,Municipio,5.071413139,-73.424796988
15,BOYACÁ,15804,TIBANÁ,Municipio,5.301116649,-73.393252095
15,BOYACÁ,15806,TIBASOSA,Municipio,5.747329389,-73.011147244
15,BOYACÁ,15808,TINJACÁ,Municipio,5.577566497,-73.676145721
15,BOYACÁ,15810,TIPACOQUE,Municipio,6.42035349,-72.694635834
15,BOYACÁ,15814,TOCA,Municipio,5.580254287,-73.160696902
15,BOYACÁ,15816,TOGÜÍ,Municipio,5.921830062,-73.489218055
15,BOYACÁ,15820,TÓPAGA,Municipio,5.765350303,-72.836729576
15,BOYACÁ,15822,TOTA,Municipio,5.501297215,-72.996332969
15,BOYACÁ,15832,TUNUNGUÁ,Municipio,5.720301516,-73.943309265
15,BOYACÁ,15835,TURMEQUÉ,Municipio,5.305697418,-73.509087138
15,BOYACÁ,15837,TUTA,Municipio,5.678126998,-73.173430534
15,BOYACÁ,15839,TUTAZÁ,Municipio,6.078051903,-72.857078319
15,BOYACÁ,15842,ÚMBITA,Municipio,5.217241368,-73.463384768
15,BOYACÁ,15861,VENTAQUEMADA,Municipio,5.383385481,-73.520979424
15,BOYACÁ,15879,VIRACACHÁ,Municipio,5.440558216,-73.266274556
15,BOYACÁ,15897,ZETAQUIRA,Municipio,5.285635983,-73.167630912
17,CALDAS,17001,MANIZALES,Municipio,5.08343301,-75.50727881
17,CALDAS,17013,AGUADAS,Municipio,5.616204006,-75.455447104
17,CALDAS,17042,ANSERMA,Municipio,5.20029922,-75.752890779
17,CALDAS,17050,ARANZAZU,Municipio,5.265539969,-75.473926194
17,CALDAS,17088,BELALCÁZAR,Municipio,4.99467728,-75.812259892
17,CALDAS,17174,CHINCHINÁ,Municipio,4.974340569,-75.659546861
17,CALDAS,17272,FILADELFIA,Municipio,5.285743777,-75.589787839
17,CALDAS,17380,LA DORADA,Municipio,5.410515691,-74.72114262
17,CALDAS,17388,LA MERCED,Municipio,5.393185716,-75.557910707
17,CALDAS,17433,MANZANARES,Municipio,5.23295391,-75.152634472
17,CALDAS,17442,MARMATO,Municipio,5.492632029,-75.60209955
17,CALDAS,17444,MARQUETALIA,Municipio,5.309142491,-75.041178923
17,CALDAS,17446,MARULANDA,Municipio,5.235585244,-75.283166479
17,CALDAS,17486,NEIRA,Municipio,5.183358589,-75.506929774
17,CALDAS,17495,NORCASIA,Municipio,5.638062349,-74.854927072
17,CALDAS,17513,PÁCORA,Municipio,5.500035035,-75.482450565
17,CALDAS,17524,PALESTINA,Municipio,5.050342543,-75.661762659
17,CALDAS,17541,PENSILVANIA,Municipio,5.407187836,-75.166839962
17,CALDAS,17614,RIOSUCIO,Municipio,5.442275418,-75.75220499
17,CALDAS,17616,RISARALDA,Municipio,5.097563816,-75.733351662
17,CALDAS,17653,SALAMINA,Municipio,5.370332425,-75.409621766
17,CALDAS,17662,SAMANÁ,Municipio,5.519692873,-74.99718577
17,CALDAS,17665,SAN JOSÉ,Municipio,5.083424513,-75.810178904
17,CALDAS,17777,SUPÍA,Municipio,5.45295802,-75.640357045
17,CALDAS,17867,VICTORIA,Municipio,5.447542859,-74.836225017
17,CALDAS,17873,VILLAMARÍA,Municipio,4.940211591,-75.435440137
17,CALDAS,17877,VITERBO,Municipio,5.047822054,-75.879297
18,CAQUETÁ,18001,FLORENCIA,Municipio,1.749138704,-75.558239064
18,CAQUETÁ,18029,ALBANIA,Municipio,1.22786549,-75.882326508
18,CAQUETÁ,18094,BELÉN DE LOS ANDAQUÍES,Municipio,1.536174657,-75.909475036
18,CAQUETÁ,18150,CARTAGENA DEL CHAIRÁ,Municipio,0.647693081,-74.272354991
18,CAQUETÁ,18205,CURILLO,Municipio,1.115379292,-75.973284517
18,CAQUETÁ,18247,EL DONCELLO,Municipio,1.713734697,-75.268781092
18,CAQUETÁ,18256,EL PAUJÍL,Municipio,1.476630016,-75.202318246
18,CAQUETÁ,18410,LA MONTAÑITA,Municipio,1.302860442,-75.235727319
18,CAQUETÁ,18460,MILÁN,Municipio,1.146692554,-75.386647638
18,CAQUETÁ,18479,MORELIA,Municipio,1.38299611,-75.673811234
18,CAQUETÁ,18592,PUERTO RICO,Municipio,2.018940891,-75.073086267
18,CAQUETÁ,18610,SAN JOSÉ DEL FRAGUA,Municipio,1.304702314,-76.110005942
18,CAQUETÁ,18753,SAN VICENTE DEL CAGUÁN,Municipio,1.308465061,-74.197469706
18,CAQUETÁ,18756,SOLANO,Municipio,0.096131862,-72.320364019
18,CAQUETÁ,18785,SOLITA,Municipio,0.943939454,-75.646685441
18,CAQUETÁ,18860,VALPARAÍSO,Municipio,1.07534915,-75.737790038
19,CAUCA,19001,POPAYÁN,Municipio,2.471704362,-76.591944191
19,CAUCA,19022,ALMAGUER,Municipio,1.912440521,-76.834945194
19,CAUCA,19050,ARGELIA,Municipio,2.329337283,-77.26314906
19,CAUCA,19075,BALBOA,Municipio,2.084732945,-77.208813302
19,CAUCA,19100,BOLÍVAR,Municipio,1.853951938,-76.963374538
19,CAUCA,19110,BUENOS AIRES,Municipio,2.988923885,-76.621589509
19,CAUCA,19130,CAJIBÍO,Municipio,2.643209848,-76.701389144
19,CAUCA,19137,CALDONO,Municipio,2.803845691,-76.427193766
19,CAUCA,19142,CALOTO,Municipio,3.062875557,-76.321279771
19,CAUCA,19212,CORINTO,Municipio,3.136753606,-76.209645692
19,CAUCA,19256,EL TAMBO,Municipio,2.534488312,-77.005112065
19,CAUCA,19290,FLORENCIA,Municipio,1.69453474,-77.087357234
19,CAUCA,19300,GUACHENÉ,Municipio,3.144389993,-76.392348107
19,CAUCA,19318,GUAPI,Municipio,2.41326696,-77.690475305
19,CAUCA,19355,INZÁ,Municipio,2.499058783,-76.137625312
19,CAUCA,19364,JAMBALÓ,Municipio,2.84981013,-76.31124919
19,CAUCA,19392,LA SIERRA,Municipio,2.187473572,-76.78228032
19,CAUCA,19397,LA VEGA,Municipio,2.053933426,-76.758806204
19,CAUCA,19418,LÓPEZ DE MICAY,Municipio,2.95819877,-77.242121575
19,CAUCA,19450,MERCADERES,Municipio,1.793825164,-77.180603812
19,CAUCA,19455,MIRANDA,Municipio,3.228235212,-76.216708274
19,CAUCA,19473,MORALES,Municipio,2.773663981,-76.746051522
19,CAUCA,19513,PADILLA,Municipio,3.194730618,-76.336241803
19,CAUCA,19517,PÁEZ,Municipio,2.733887702,-75.993682638
19,CAUCA,19532,PATÍA,Municipio,2.157983906,-77.046576199
19,CAUCA,19533,PIAMONTE,Municipio,1.054128816,-76.444327103
19,CAUCA,19548,PIENDAMÓ - TUNÍA,Municipio,2.702420026,-76.537704551
19,CAUCA,19573,PUERTO TEJADA,Municipio,3.266724205,-76.41846353
19,CAUCA,19585,PURACÉ,Municipio,2.262153618,-76.448269377
19,CAUCA,19622,ROSAS,Municipio,2.260421954,-76.74582033
19,CAUCA,19693,SAN SEBASTIÁN,Municipio,1.856261815,-76.716524236
19,CAUCA,19698,SANTANDER DE QUILICHAO,Municipio,2.984467338,-76.498731453
19,CAUCA,19701,SANTA ROSA,Municipio,1.52002179,-76.538762806
19,CAUCA,19743,SILVIA,Municipio,2.651291894,-76.350573563
19,CAUCA,19760,SOTARÁ PAISPAMBA,Municipio,2.231820541,-76.611466326
19,CAUCA,19780,SUÁREZ,Municipio,2.936865997,-76.745824296
19,CAUCA,19785,SUCRE,Municipio,2.057735184,-76.909939647
19,CAUCA,19807,TIMBÍO,Municipio,2.369625312,-76.710519323
19,CAUCA,19809,TIMBIQUÍ,Municipio,2.699475127,-77.491315765
19,CAUCA,19821,TORIBÍO,Municipio,2.975771999,-76.203315664
19,CAUCA,19824,TOTORÓ,Municipio,2.475213085,-76.39675937
19,CAUCA,19845,VILLA RICA,Municipio,3.180627317,-76.464455581
20,CESAR,20001,VALLEDUPAR,Municipio,10.218902768,-73.457847638
20,CESAR,20011,AGUACHICA,Municipio,8.248735219,-73.6227405
20,CESAR,20013,AGUSTÍN CODAZZI,Municipio,9.949215908,-73.223582441
20,CESAR,20032,ASTREA,Municipio,9.510727925,-73.942146411
20,CESAR,20045,BECERRIL,Municipio,9.727732939,-73.252505222
20,CESAR,20060,BOSCONIA,Municipio,9.946391309,-73.866288153
20,CESAR,20175,CHIMICHAGUA,Municipio,9.27797765,-73.846979027
20,CESAR,20178,CHIRIGUANÁ,Municipio,9.426648354,-73.547978944
20,CESAR,20228,CURUMANÍ,Municipio,9.238771332,-73.488108612
20,CESAR,20238,EL COPEY,Municipio,10.199953563,-73.912820636
20,CESAR,20250,EL PASO,Municipio,9.683474681,-73.738337782
20,CESAR,20295,GAMARRA,Municipio,8.337726622,-73.706491986
20,CESAR,20310,GONZÁLEZ,Municipio,8.405516522,-73.375373085
20,CESAR,20383,LA GLORIA,Municipio,8.588002247,-73.616023836
20,CESAR,20400,LA JAGUA DE IBIRICO,Municipio,9.52099808,-73.322493379
20,CESAR,20443,MANAURE BALCÓN DEL CESAR,Municipio,10.38027852,-73.007062754
20,CESAR,20517,PAILITAS,Municipio,8.938916143,-73.572472125
20,CESAR,20550,PELAYA,Municipio,8.764116734,-73.632955464
20,CESAR,20570,PUEBLO BELLO,Municipio,10.417368738,-73.614506323
20,CESAR,20614,RÍO DE ORO,Municipio,8.201070245,-73.487501265
20,CESAR,20621,LA PAZ,Municipio,10.244405624,-73.078245692
20,CESAR,20710,SAN ALBERTO,Municipio,7.769815987,-73.472188879
20,CESAR,20750,SAN DIEGO,Municipio,10.169527121,-73.287982702
20,CESAR,20770,SAN MARTÍN,Municipio,7.937788454,-73.544363121
20,CESAR,20787,TAMALAMEQUE,Municipio,8.902075012,-73.763396197
23,CÓRDOBA,23001,MONTERÍA,Municipio,8.584698016,-75.950550788
23,CÓRDOBA,23068,AYAPEL,Municipio,8.265768688,-75.048684357
23,CÓRDOBA,23079,BUENAVISTA,Municipio,8.191397953,-75.433825319
23,CÓRDOBA,23090,CANALETE,Municipio,8.7240958,-76.237790807
23,CÓRDOBA,23162,CERETÉ,Municipio,8.895667051,-75.878423912
23,CÓRDOBA,23168,CHIMÁ,Municipio,9.11024941,-75.652373511
23,CÓRDOBA,23182,CHINÚ,Municipio,9.053287104,-75.373873626
23,CÓRDOBA,23189,CIÉNAGA DE ORO,Municipio,8.841811894,-75.607798292
23,CÓRDOBA,23300,COTORRA,Municipio,9.071460219,-75.754592755
23,CÓRDOBA,23350,LA APARTADA,Municipio,8.052218422,-75.28816022
23,CÓRDOBA,23417,LORICA,Municipio,9.165034998,-75.909781236
23,CÓRDOBA,23419,LOS CÓRDOBAS,Municipio,8.823307063,-76.343055201
23,CÓRDOBA,23464,MOMIL,Municipio,9.265461621,-75.650908762
23,CÓRDOBA,23466,MONTELÍBANO,Municipio,7.866432635,-75.875339255
23,CÓRDOBA,23500,MOÑITOS,Municipio,9.190515343,-76.119317094
23,CÓRDOBA,23555,PLANETA RICA,Municipio,8.181108488,-75.68923803
23,CÓRDOBA,23570,PUEBLO NUEVO,Municipio,8.481339568,-75.405161542
23,CÓRDOBA,23574,PUERTO ESCONDIDO,Municipio,8.988667731,-76.194059124
23,CÓRDOBA,23580,PUERTO LIBERTADOR,Municipio,7.711515736,-75.771232238
23,CÓRDOBA,23586,PURÍSIMA DE LA CONCEPCIÓN,Municipio,9.282386127,-75.721293921
23,CÓRDOBA,23660,SAHAGÚN,Municipio,8.799007016,-75.429256639
23,CÓRDOBA,23670,SAN ANDRÉS DE SOTAVENTO,Municipio,9.121296353,-75.520917113
23,CÓRDOBA,23672,SAN ANTERO,Municipio,9.359667489,-75.787002521
23,CÓRDOBA,23675,SAN BERNARDO DEL VIENTO,Municipio,9.330098329,-75.976238578
23,CÓRDOBA,23678,SAN CARLOS,Municipio,8.706464263,-75.692518245
23,CÓRDOBA,23682,SAN JOSÉ DE URÉ,Municipio,7.753054395,-75.567247397
23,CÓRDOBA,23686,SAN PELAYO,Municipio,8.987777392,-75.909587708
23,CÓRDOBA,23807,TIERRALTA,Municipio,7.813896829,-76.16846678
23,CÓRDOBA,23815,TUCHÍN,Municipio,9.224630803,-75.544105925
23,CÓRDOBA,23855,VALENCIA,Municipio,8.219904128,-76.2213286
25,CUNDINAMARCA,25001,AGUA DE DIOS,Municipio,4.372744676,-74.671110509
25,CUNDINAMARCA,25019,ALBÁN,Municipio,4.891121638,-74.442784317
25,CUNDINAMARCA,25035,ANAPOIMA,Municipio,4.559962881,-74.525695298
25,CUNDINAMARCA,25040,ANOLAIMA,Municipio,4.789313614,-74.461942563
25,CUNDINAMARCA,25053,ARBELÁEZ,Municipio,4.232786985,-74.395762911
25,CUNDINAMARCA,25086,BELTRÁN,Municipio,4.791721105,-74.714913986
25,CUNDINAMARCA,25095,BITUIMA,Municipio,4.847821091,-74.528627661
25,CUNDINAMARCA,25099,BOJACÁ,Municipio,4.705576252,-74.335407699
25,CUNDINAMARCA,25120,CABRERA,Municipio,3.91861924,-74.44615606
25,CUNDINAMARCA,25123,CACHIPAY,Municipio,4.723063341,-74.459195283
25,CUNDINAMARCA,25126,CAJICÁ,Municipio,4.930402779,-74.029851152
25,CUNDINAMARCA,25148,CAPARRAPÍ,Municipio,5.381501399,-74.521235947
25,CUNDINAMARCA,25151,CÁQUEZA,Municipio,4.402259457,-73.94482435
25,CUNDINAMARCA,25154,CARMEN DE CARUPA,Municipio,5.338856556,-73.926148172
25,CUNDINAMARCA,25168,CHAGUANÍ,Municipio,4.95425175,-74.630901385
25,CUNDINAMARCA,25175,CHÍA,Municipio,4.857823671,-74.038095385
25,CUNDINAMARCA,25178,CHIPAQUE,Municipio,4.463746629,-74.04605246
25,CUNDINAMARCA,25181,CHOACHÍ,Municipio,4.578183896,-73.952900544
25,CUNDINAMARCA,25183,CHOCONTÁ,Municipio,5.118419271,-73.680685831
25,CUNDINAMARCA,25200,COGUA,Municipio,5.103127532,-73.97536559
25,CUNDINAMARCA,25214,COTA,Municipio,4.76754674,-74.141558295
25,CUNDINAMARCA,25224,CUCUNUBÁ,Municipio,5.230308105,-73.780018849
25,CUNDINAMARCA,25245,EL COLEGIO,Municipio,4.556947085,-74.426584776
25,CUNDINAMARCA,25258,EL PEÑÓN,Municipio,5.261728244,-74.308305639
25,CUNDINAMARCA,25260,EL ROSAL,Municipio,4.879723016,-74.238022729
25,CUNDINAMARCA,25269,FACATATIVÁ,Municipio,4.834052334,-74.338022898
25,CUNDINAMARCA,25279,FÓMEQUE,Municipio,4.528568462,-73.797052666
25,CUNDINAMARCA,25281,FOSCA,Municipio,4.316280072,-73.952867838
25,CUNDINAMARCA,25286,FUNZA,Municipio,4.743996711,-74.198659923
25,CUNDINAMARCA,25288,FÚQUENE,Municipio,5.416288902,-73.770598289
25,CUNDINAMARCA,25290,FUSAGASUGÁ,Municipio,4.323534028,-74.388591139
25,CUNDINAMARCA,25293,GACHALÁ,Municipio,4.65495513,-73.510553814
25,CUNDINAMARCA,25295,GACHANCIPÁ,Municipio,5.01001953,-73.87671759
25,CUNDINAMARCA,25297,GACHETÁ,Municipio,4.867551134,-73.617732872
25,CUNDINAMARCA,25299,GAMA,Municipio,4.723573464,-73.600544414
25,CUNDINAMARCA,25307,GIRARDOT,Municipio,4.338154518,-74.811439221
25,CUNDINAMARCA,25312,GRANADA,Municipio,4.523484884,-74.337246192
25,CUNDINAMARCA,25317,GUACHETÁ,Municipio,5.387291542,-73.693282341
25,CUNDINAMARCA,25320,GUADUAS,Municipio,5.173554764,-74.640146507
25,CUNDINAMARCA,25322,GUASCA,Municipio,4.801276832,-73.846434852
25,CUNDINAMARCA,25324,GUATAQUÍ,Municipio,4.516381655,-74.782577881
25,CUNDINAMARCA,25326,GUATAVITA,Municipio,4.91158717,-73.786485644
25,CUNDINAMARCA,25328,GUAYABAL DE SÍQUIMA,Municipio,4.866310254,-74.476770895
25,CUNDINAMARCA,25335,GUAYABETAL,Municipio,4.231875945,-73.835439807
25,CUNDINAMARCA,25339,GUTIÉRREZ,Municipio,4.166089563,-74.024652702
25,CUNDINAMARCA,25368,JERUSALÉN,Municipio,4.571350254,-74.689158536
25,CUNDINAMARCA,25372,JUNÍN,Municipio,4.705170789,-73.692478732
25,CUNDINAMARCA,25377,LA CALERA,Municipio,4.700785443,-73.929399208
25,CUNDINAMARCA,25386,LA MESA,Municipio,4.650773167,-74.473217169
25,CUNDINAMARCA,25394,LA PALMA,Municipio,5.333400646,-74.40807863
25,CUNDINAMARCA,25398,LA PEÑA,Municipio,5.20459882,-74.407866109
25,CUNDINAMARCA,25402,LA VEGA,Municipio,4.978619842,-74.339360611
25,CUNDINAMARCA,25407,LENGUAZAQUE,Municipio,5.303637171,-73.681532277
25,CUNDINAMARCA,25426,MACHETÁ,Municipio,5.040349198,-73.617382409
25,CUNDINAMARCA,25430,MADRID,Municipio,4.75156751,-74.289630496
25,CUNDINAMARCA,25436,MANTA,Municipio,4.976881151,-73.563137406
25,CUNDINAMARCA,25438,MEDINA,Municipio,4.484437919,-73.405984868
25,CUNDINAMARCA,25473,MOSQUERA,Municipio,4.672714223,-74.235731935
25,CUNDINAMARCA,25483,NARIÑO,Municipio,4.407952015,-74.80565317
25,CUNDINAMARCA,25486,NEMOCÓN,Municipio,5.093705358,-73.883802375
25,CUNDINAMARCA,25488,NILO,Municipio,4.294780933,-74.614694997
25,CUNDINAMARCA,25489,NIMAIMA,Municipio,5.121445325,-74.397370483
25,CUNDINAMARCA,25491,NOCAIMA,Municipio,5.066110761,-74.389754758
25,CUNDINAMARCA,25506,VENECIA,Municipio,4.063342074,-74.452597955
25,CUNDINAMARCA,25513,PACHO,Municipio,5.168367634,-74.163365443
25,CUNDINAMARCA,25518,PAIME,Municipio,5.387647345,-74.163956956
25,CUNDINAMARCA,25524,PANDI,Municipio,4.180497268,-74.471121297
25,CUNDINAMARCA,25530,PARATEBUENO,Municipio,4.368158959,-73.241661397
25,CUNDINAMARCA,25535,PASCA,Municipio,4.293733611,-74.27396924
25,CUNDINAMARCA,25572,PUERTO SALGAR,Municipio,5.619752748,-74.580192303
25,CUNDINAMARCA,25580,PULÍ,Municipio,4.691336253,-74.680744036
25,CUNDINAMARCA,25592,QUEBRADANEGRA,Municipio,5.09998103,-74.494510697
25,CUNDINAMARCA,25594,QUETAME,Municipio,4.334589044,-73.85264561
25,CUNDINAMARCA,25596,QUIPILE,Municipio,4.726907976,-74.553599262
25,CUNDINAMARCA,25599,APULO,Municipio,4.537711619,-74.591246563
25,CUNDINAMARCA,25612,RICAURTE,Municipio,4.307363489,-74.729434034
25,CUNDINAMARCA,25645,SAN ANTONIO DEL TEQUENDAMA,Municipio,4.599741357,-74.344903416
25,CUNDINAMARCA,25649,SAN BERNARDO,Municipio,4.140958464,-74.353976921
25,CUNDINAMARCA,25653,SAN CAYETANO,Municipio,5.314600423,-74.072320771
25,CUNDINAMARCA,25658,SAN FRANCISCO,Municipio,4.964100703,-74.272171286
25,CUNDINAMARCA,25662,SAN JUAN DE RIOSECO,Municipio,4.814537831,-74.615259849
25,CUNDINAMARCA,25718,SASAIMA,Municipio,4.946805263,-74.412309212
25,CUNDINAMARCA,25736,SESQUILÉ,Municipio,5.000633875,-73.772065443
25,CUNDINAMARCA,25740,SIBATÉ,Municipio,4.465970004,-74.263289627
25,CUNDINAMARCA,25743,SILVANIA,Municipio,4.436967141,-74.37050903
25,CUNDINAMARCA,25745,SIMIJACA,Municipio,5.509773128,-73.845191644
25,CUNDINAMARCA,25754,SOACHA,Municipio,4.581866267,-74.240296958
25,CUNDINAMARCA,25758,SOPÓ,Municipio,4.888060112,-73.965875277
25,CUNDINAMARCA,25769,SUBACHOQUE,Municipio,4.970358034,-74.156899234
25,CUNDINAMARCA,25772,SUESCA,Municipio,5.122728461,-73.824273125
25,CUNDINAMARCA,25777,SUPATÁ,Municipio,5.061692703,-74.231383276
25,CUNDINAMARCA,25779,SUSA,Municipio,5.440092358,-73.823925286
25,CUNDINAMARCA,25781,SUTATAUSA,Municipio,5.242909347,-73.855403428
25,CUNDINAMARCA,25785,TABIO,Municipio,4.951520046,-74.08449648
25,CUNDINAMARCA,25793,TAUSA,Municipio,5.170527212,-73.958195935
25,CUNDINAMARCA,25797,TENA,Municipio,4.666608192,-74.367649558
25,CUNDINAMARCA,25799,TENJO,Municipio,4.838548601,-74.146802872
25,CUNDINAMARCA,25805,TIBACUY,Municipio,4.321357899,-74.486672741
25,CUNDINAMARCA,25807,TIBIRITA,Municipio,5.084102682,-73.513625457
25,CUNDINAMARCA,25815,TOCAIMA,Municipio,4.452072974,-74.648644062
25,CUNDINAMARCA,25817,TOCANCIPÁ,Municipio,4.968852913,-73.928870205
25,CUNDINAMARCA,25823,TOPAIPÍ,Municipio,5.355688386,-74.289639943
25,CUNDINAMARCA,25839,UBALÁ,Municipio,4.803805182,-73.47654604
25,CUNDINAMARCA,25841,UBAQUE,Municipio,4.500754182,-73.975645447
25,CUNDINAMARCA,25843,VILLA DE SAN DIEGO DE UBATÉ,Municipio,5.316080652,-73.820105663
25,CUNDINAMARCA,25845,UNE,Municipio,4.244611163,-74.11187304
25,CUNDINAMARCA,25851,ÚTICA,Municipio,5.192795708,-74.477800029
25,CUNDINAMARCA,25862,VERGARA,Municipio,5.131267542,-74.309792287
25,CUNDINAMARCA,25867,VIANÍ,Municipio,4.914040619,-74.549366548
25,CUNDINAMARCA,25871,VILLAGÓMEZ,Municipio,5.270694636,-74.190743751
25,CUNDINAMARCA,25873,VILLAPINZÓN,Municipio,5.227298709,-73.577259209
25,CUNDINAMARCA,25875,VILLETA,Municipio,5.011670402,-74.487647455
25,CUNDINAMARCA,25878,VIOTÁ,Municipio,4.436054105,-74.485433391
25,CUNDINAMARCA,25885,YACOPÍ,Municipio,5.591910157,-74.364808653
25,CUNDINAMARCA,25898,ZIPACÓN,Municipio,4.75432173,-74.386734443
25,CUNDINAMARCA,25899,ZIPAQUIRÁ,Municipio,5.06631685,-74.049603234
27,CHOCÓ,27001,QUIBDÓ,Municipio,5.7543229,-76.65015147
27,CHOCÓ,27006,ACANDÍ,Municipio,8.383938499,-77.265602561
27,CHOCÓ,27025,ALTO BAUDÓ,Municipio,5.636740989,-77.084215399
27,CHOCÓ,27050,ATRATO,Municipio,5.525825084,-76.650643569
27,CHOCÓ,27073,BAGADÓ,Municipio,5.503119772,-76.197969065
27,CHOCÓ,27075,BAHÍA SOLANO,Municipio,6.162762775,-77.416535344
27,CHOCÓ,27077,BAJO BAUDÓ,Municipio,4.492865435,-77.082713524
27,CHOCÓ,27099,BOJAYÁ,Municipio,6.474666885,-77.09933025
27,CHOCÓ,27135,EL CANTÓN DEL SAN PABLO,Municipio,5.359661967,-76.772556244
27,CHOCÓ,27150,CARMEN DEL DARIÉN,Municipio,7.033646541,-76.974230164
27,CHOCÓ,27160,CÉRTEGUI,Municipio,5.389828229,-76.522642368
27,CHOCÓ,27205,CONDOTO,Municipio,5.070586101,-76.50701751
27,CHOCÓ,27245,EL CARMEN DE ATRATO,Municipio,5.810938364,-76.191894424
27,CHOCÓ,27250,EL LITORAL DEL SAN JUAN,Municipio,4.272940191,-76.987858279
27,CHOCÓ,27361,ISTMINA,Municipio,4.586818665,-77.000907374
27,CHOCÓ,27372,JURADÓ,Municipio,7.103338868,-77.679736621
27,CHOCÓ,27413,LLORÓ,Municipio,5.585101179,-76.385444488
27,CHOCÓ,27425,MEDIO ATRATO,Municipio,6.033880098,-76.673469703
27,CHOCÓ,27430,MEDIO BAUDÓ,Municipio,5.110392243,-76.995930752
27,CHOCÓ,27450,MEDIO SAN JUAN,Municipio,4.621182739,-76.808618427
27,CHOCÓ,27491,NÓVITA,Municipio,4.853386627,-76.618236685
27,CHOCÓ,27493,NUEVO BELÉN DE BAJIRÁ *,Municipio,7.439023,-76.844188
27,CHOCÓ,27495,NUQUÍ,Municipio,5.591359844,-77.330574386
27,CHOCÓ,27580,RÍO IRÓ,Municipio,5.190995015,-76.41996151
27,CHOCÓ,27600,RÍO QUITO,Municipio,5.567533337,-76.811570844
27,CHOCÓ,27615,RIOSUCIO,Municipio,7.375606,-77.35636
27,CHOCÓ,27660,SAN JOSÉ DEL PALMAR,Municipio,4.958741345,-76.280023606
27,CHOCÓ,27745,SIPÍ,Municipio,4.594415157,-76.541944593
27,CHOCÓ,27787,TADÓ,Municipio,5.26610158,-76.331095472
27,CHOCÓ,27800,UNGUÍA,Municipio,8.117281079,-77.10372723
27,CHOCÓ,27810,UNIÓN PANAMERICANA,Municipio,5.281599258,-76.619627455
41,HUILA,41001,NEIVA,Municipio,2.993360046,-75.272362322
41,HUILA,41006,ACEVEDO,Municipio,1.709114446,-75.996641844
41,HUILA,41013,AGRADO,Municipio,2.26975042,-75.716322355
41,HUILA,41016,AIPE,Municipio,3.243441923,-75.276706552
41,HUILA,41020,ALGECIRAS,Municipio,2.49785068,-75.291349457
41,HUILA,41026,ALTAMIRA,Municipio,2.07922808,-75.768582878
41,HUILA,41078,BARAYA,Municipio,3.135423634,-74.957977964
41,HUILA,41132,CAMPOALEGRE,Municipio,2.658666675,-75.329438026
41,HUILA,41206,COLOMBIA,Municipio,3.262763564,-74.785161172
41,HUILA,41244,ELÍAS,Municipio,2.022053305,-75.944305207
41,HUILA,41298,GARZÓN,Municipio,2.172441496,-75.571312425
41,HUILA,41306,GIGANTE,Municipio,2.371781539,-75.516997536
41,HUILA,41319,GUADALUPE,Municipio,1.984394016,-75.696935488
41,HUILA,41349,HOBO,Municipio,2.541654161,-75.447810831
41,HUILA,41357,ÍQUIRA,Municipio,2.691517773,-75.673831406
41,HUILA,41359,ISNOS,Municipio,1.945591321,-76.182047216
41,HUILA,41378,LA ARGENTINA,Municipio,2.156287619,-76.006794511
41,HUILA,41396,LA PLATA,Municipio,2.328076586,-76.001172988
41,HUILA,41483,NÁTAGA,Municipio,2.576066285,-75.786937574
41,HUILA,41503,OPORAPA,Municipio,2.061191362,-76.04110289
41,HUILA,41518,PAICOL,Municipio,2.40689827,-75.72803027
41,HUILA,41524,PALERMO,Municipio,2.914491967,-75.440661177
41,HUILA,41530,PALESTINA,Municipio,1.68458076,-76.147855897
41,HUILA,41548,PITAL,Municipio,2.259601773,-75.831951604
41,HUILA,41551,PITALITO,Municipio,1.848217185,-76.05217643
41,HUILA,41615,RIVERA,Municipio,2.79286115,-75.235368675
41,HUILA,41660,SALADOBLANCO,Municipio,2.100382849,-76.228978708
41,HUILA,41668,SAN AGUSTÍN,Municipio,1.924165493,-76.416565503
41,HUILA,41676,SANTA MARÍA,Municipio,2.926265937,-75.633597855
41,HUILA,41770,SUAZA,Municipio,1.870992095,-75.807984706
41,HUILA,41791,TARQUI,Municipio,2.130280544,-75.875348449
41,HUILA,41797,TESALIA,Municipio,2.526855132,-75.68259642
41,HUILA,41799,TELLO,Municipio,3.030611777,-75.08536553
41,HUILA,41801,TERUEL,Municipio,2.851852692,-75.759889336
41,HUILA,41807,TIMANÁ,Municipio,1.950715226,-75.917576487
41,HUILA,41872,VILLAVIEJA,Municipio,3.287057875,-75.13838292
41,HUILA,41885,YAGUARÁ,Municipio,2.646563339,-75.515926448
44,LA GUAJIRA,44001,RIOHACHA,Municipio,11.242972141,-72.958763152
44,LA GUAJIRA,44035,ALBANIA,Municipio,11.228690485,-72.532096574
44,LA GUAJIRA,44078,BARRANCAS,Municipio,10.948716767,-72.696968794
44,LA GUAJIRA,44090,DIBULLA,Municipio,11.090297147,-73.435687876
44,LA GUAJIRA,44098,DISTRACCIÓN,Municipio,10.925051067,-72.944440273
44,LA GUAJIRA,44110,EL MOLINO,Municipio,10.636696455,-72.8858431
44,LA GUAJIRA,44279,FONSECA,Municipio,10.8283716,-72.801817799
44,LA GUAJIRA,44378,HATONUEVO,Municipio,11.099055817,-72.738424272
44,LA GUAJIRA,44420,LA JAGUA DEL PILAR,Municipio,10.4580941,-73.072091927
44,LA GUAJIRA,44430,MAICAO,Municipio,11.381577644,-72.295008177
44,LA GUAJIRA,44560,MANAURE,Municipio,11.605542633,-72.571603922
44,LA GUAJIRA,44650,SAN JUAN DEL CESAR,Municipio,10.81311496,-73.086599864
44,LA GUAJIRA,44847,URIBIA,Municipio,11.999719855,-71.748826616
44,LA GUAJIRA,44855,URUMITA,Municipio,10.494702101,-72.986239906
44,LA GUAJIRA,44874,VILLANUEVA,Municipio,10.583647554,-72.975202862
47,MAGDALENA,47001,SANTA MARTA,Municipio,11.121894357,-73.885278551
47,MAGDALENA,47030,ALGARROBO,Municipio,10.253564748,-74.103230272
47,MAGDALENA,47053,ARACATACA,Municipio,10.644908765,-73.879722568
47,MAGDALENA,47058,ARIGUANÍ,Municipio,9.834264955,-74.084600846
47,MAGDALENA,47161,CERRO DE SAN ANTONIO,Municipio,10.313293299,-74.80834413
47,MAGDALENA,47170,CHIVOLO,Municipio,10.099519608,-74.526066666
47,MAGDALENA,47189,CIÉNAGA,Municipio,10.857545516,-74.025004934
47,MAGDALENA,47205,CONCORDIA,Municipio,10.232848013,-74.778101753
47,MAGDALENA,47245,EL BANCO,Municipio,9.114930635,-73.981054905
47,MAGDALENA,47258,EL PIÑÓN,Municipio,10.343109882,-74.678177555
47,MAGDALENA,47268,EL RETÉN,Municipio,10.659616964,-74.325159702
47,MAGDALENA,47288,FUNDACIÓN,Municipio,10.459378178,-73.884065179
47,MAGDALENA,47318,GUAMAL,Municipio,9.248004673,-74.139680847
47,MAGDALENA,47460,NUEVA GRANADA,Municipio,9.735998134,-74.32840222
47,MAGDALENA,47541,PEDRAZA,Municipio,10.154295459,-74.831780906
47,MAGDALENA,47545,PIJIÑO DEL CARMEN,Municipio,9.530748654,-74.144765702
47,MAGDALENA,47551,PIVIJAY,Municipio,10.433033993,-74.412511966
47,MAGDALENA,47555,PLATO,Municipio,9.76945611,-74.601815758
47,MAGDALENA,47570,PUEBLOVIEJO,Municipio,10.847589014,-74.360579422
47,MAGDALENA,47605,REMOLINO,Municipio,10.648603506,-74.581068226
47,MAGDALENA,47660,SABANAS DE SAN ÁNGEL,Municipio,10.105330275,-74.264439202
47,MAGDALENA,47675,SALAMINA,Municipio,10.51538178,-74.722969716
47,MAGDALENA,47692,SAN SEBASTIÁN DE BUENAVISTA,Municipio,9.380680272,-74.197979884
47,MAGDALENA,47703,SAN ZENÓN,Municipio,9.306869548,-74.358516443
47,MAGDALENA,47707,SANTA ANA,Municipio,9.503097215,-74.444193806
47,MAGDALENA,47720,SANTA BÁRBARA DE PINTO,Municipio,9.484388135,-74.665211779
47,MAGDALENA,47745,SITIONUEVO,Municipio,10.89027616,-74.629660378
47,MAGDALENA,47798,TENERIFE,Municipio,9.924701267,-74.732630011
47,MAGDALENA,47960,ZAPAYÁN,Municipio,10.117798928,-74.691154562
47,MAGDALENA,47980,ZONA BANANERA,Municipio,10.796346583,-74.177983168
50,META,50001,VILLAVICENCIO,Municipio,4.09166877,-73.492915945
50,META,50006,ACACÍAS,Municipio,3.943383008,-73.571351617
50,META,50110,BARRANCA DE UPÍA,Municipio,4.519076127,-72.995489813
50,META,50124,CABUYARO,Municipio,4.315244759,-72.952688956
50,META,50150,CASTILLA LA NUEVA,Municipio,3.805154089,-73.538866677
50,META,50223,CUBARRAL,Municipio,3.834631516,-74.062324943
50,META,50226,CUMARAL,Municipio,4.232526389,-73.314775392
50,META,50245,EL CALVARIO,Municipio,4.353769888,-73.714416844
50,META,50251,EL CASTILLO,Municipio,3.60282633,-73.894452375
50,META,50270,EL DORADO,Municipio,3.706969785,-73.831618922
50,META,50287,FUENTE DE ORO,Municipio,3.382370124,-73.596254293
50,META,50313,GRANADA,Municipio,3.441051399,-73.761154704
50,META,50318,GUAMAL,Municipio,3.947775585,-73.959838638
50,META,50325,MAPIRIPÁN,Municipio,3.117523361,-71.938056916
50,META,50330,MESETAS,Municipio,3.154771201,-74.124548242
50,META,50350,LA MACARENA,Municipio,2.161863917,-74.094880756
50,META,50370,URIBE,Municipio,3.047726858,-74.430661339
50,META,50400,LEJANÍAS,Municipio,3.614714873,-74.096284667
50,META,50450,PUERTO CONCORDIA,Municipio,2.752260112,-72.721094102
50,META,50568,PUERTO GAITÁN,Municipio,4.005034467,-71.631574285
50,META,50573,PUERTO LÓPEZ,Municipio,4.014298921,-72.645704992
50,META,50577,PUERTO LLERAS,Municipio,3.193092925,-73.236714364
50,META,50590,PUERTO RICO,Municipio,2.758083657,-73.137801709
50,META,50606,RESTREPO,Municipio,4.204310977,-73.502260369
50,META,50680,SAN CARLOS DE GUAROA,Municipio,3.84761678,-73.275834014
50,META,50683,SAN JUAN DE ARAMA,Municipio,3.289851171,-73.816352434
50,META,50686,SAN JUANITO,Municipio,4.471346322,-73.660413554
50,META,50689,SAN MARTÍN,Municipio,3.515860962,-72.656727424
50,META,50711,VISTAHERMOSA,Municipio,2.811616698,-73.666522336
52,NARIÑO,52001,PASTO,Municipio,1.083605497,-77.206100743
52,NARIÑO,52019,ALBÁN,Municipio,1.469854084,-77.068809472
52,NARIÑO,52022,ALDANA,Municipio,0.913431916,-77.695387307
52,NARIÑO,52036,ANCUYA,Municipio,1.245254077,-77.53115777
52,NARIÑO,52051,ARBOLEDA,Municipio,1.480051172,-77.129850006
52,NARIÑO,52079,BARBACOAS,Municipio,1.44563774,-78.156210724
52,NARIÑO,52083,BELÉN,Municipio,1.593645287,-77.019993659
52,NARIÑO,52110,BUESACO,Municipio,1.315215636,-77.116366395
52,NARIÑO,52203,COLÓN,Municipio,1.636334379,-77.0473156
52,NARIÑO,52207,CONSACÁ,Municipio,1.209066732,-77.440639207
52,NARIÑO,52210,CONTADERO,Municipio,0.932667458,-77.528087314
52,NARIÑO,52215,CÓRDOBA,Municipio,0.78274688,-77.368059034
52,NARIÑO,52224,CUASPUD CARLOSAMA,Municipio,0.875426999,-77.735916005
52,NARIÑO,52227,CUMBAL,Municipio,0.944223274,-77.959584455
52,NARIÑO,52233,CUMBITARA,Municipio,1.72559011,-77.592816372
52,NARIÑO,52240,CHACHAGÜÍ,Municipio,1.386497844,-77.26969022
52,NARIÑO,52250,EL CHARCO,Municipio,2.216382295,-77.995332339
52,NARIÑO,52254,EL PEÑOL,Municipio,1.512283967,-77.430509342
52,NARIÑO,52256,EL ROSARIO,Municipio,1.887689437,-77.483195889
52,NARIÑO,52258,EL TABLÓN DE GÓMEZ,Municipio,1.409430207,-76.985269588
52,NARIÑO,52260,EL TAMBO,Municipio,1.43026376,-77.383115973
52,NARIÑO,52287,FUNES,Municipio,0.957786429,-77.395327805
52,NARIÑO,52317,GUACHUCAL,Municipio,0.975037904,-77.737589414
52,NARIÑO,52320,GUAITARILLA,Municipio,1.151366658,-77.530113362
52,NARIÑO,52323,GUALMATÁN,Municipio,0.928642623,-77.582618827
52,NARIÑO,52352,ILES,Municipio,0.980534037,-77.518657295
52,NARIÑO,52354,IMUÉS,Municipio,1.07287697,-77.501508644
52,NARIÑO,52356,IPIALES,Municipio,0.497708465,-77.240476252
52,NARIÑO,52378,LA CRUZ,Municipio,1.584175998,-76.923352621
52,NARIÑO,52381,LA FLORIDA,Municipio,1.338034371,-77.422930412
52,NARIÑO,52385,LA LLANADA,Municipio,1.541847847,-77.61781608
52,NARIÑO,52390,LA TOLA,Municipio,2.56027333,-78.235066941
52,NARIÑO,52399,LA UNIÓN,Municipio,1.619697376,-77.142846218
52,NARIÑO,52405,LEIVA,Municipio,1.900862361,-77.31220073
52,NARIÑO,52411,LINARES,Municipio,1.395173084,-77.520937738
52,NARIÑO,52418,LOS ANDES,Municipio,1.672601269,-77.710544487
52,NARIÑO,52427,MAGÜÍ,Municipio,1.906858429,-78.044736438
52,NARIÑO,52435,MALLAMA,Municipio,1.155947016,-77.846646464
52,NARIÑO,52473,MOSQUERA,Municipio,2.442493698,-78.438827004
52,NARIÑO,52480,NARIÑO,Municipio,1.286775273,-77.352203665
52,NARIÑO,52490,OLAYA HERRERA,Municipio,2.287856547,-78.31219024
52,NARIÑO,52506,OSPINA,Municipio,1.029815854,-77.552349435
52,NARIÑO,52520,FRANCISCO PIZARRO,Municipio,2.088531925,-78.591930987
52,NARIÑO,52540,POLICARPA,Municipio,1.735354202,-77.48134359
52,NARIÑO,52560,POTOSÍ,Municipio,0.785841088,-77.528704073
52,NARIÑO,52565,PROVIDENCIA,Municipio,1.232864821,-77.598442123
52,NARIÑO,52573,PUERRES,Municipio,0.854351651,-77.350325234
52,NARIÑO,52585,PUPIALES,Municipio,0.916769831,-77.633369537
52,NARIÑO,52612,RICAURTE,Municipio,1.147671848,-78.05811118
52,NARIÑO,52621,ROBERTO PAYÁN,Municipio,1.897581156,-78.3811163
52,NARIÑO,52678,SAMANIEGO,Municipio,1.430555262,-77.691795591
52,NARIÑO,52683,SANDONÁ,Municipio,1.288105409,-77.456700683
52,NARIÑO,52685,SAN BERNARDO,Municipio,1.529782485,-77.020706625
52,NARIÑO,52687,SAN LORENZO,Municipio,1.542139582,-77.218726925
52,NARIÑO,52693,SAN PABLO,Municipio,1.681576627,-76.975279793
52,NARIÑO,52694,SAN PEDRO DE CARTAGO,Municipio,1.536823494,-77.101403249
52,NARIÑO,52696,SANTA BÁRBARA,Municipio,2.494420411,-77.982564611
52,NARIÑO,52699,SANTACRUZ,Municipio,1.285179376,-77.744574404
52,NARIÑO,52720,SAPUYES,Municipio,1.045287475,-77.71810954
52,NARIÑO,52786,TAMINANGO,Municipio,1.591661392,-77.325253155
52,NARIÑO,52788,TANGUA,Municipio,1.064078111,-77.350634907
52,NARIÑO,52835,SAN ANDRÉS DE TUMACO,Municipio,1.574550638,-78.615409629
52,NARIÑO,52838,TÚQUERRES,Municipio,1.134440523,-77.63073238
52,NARIÑO,52885,YACUANQUER,Municipio,1.125547916,-77.424675688
54,NORTE DE SANTANDER,54001,SAN JOSÉ DE CÚCUTA,Municipio,8.112041811,-72.488626408
54,NORTE DE SANTANDER,54003,ÁBREGO,Municipio,8.019834481,-73.158504846
54,NORTE DE SANTANDER,54051,ARBOLEDAS,Municipio,7.586048164,-72.917053152
54,NORTE DE SANTANDER,54099,BOCHALEMA,Municipio,7.608509339,-72.659519092
54,NORTE DE SANTANDER,54109,BUCARASICA,Municipio,8.079802239,-72.929199255
54,NORTE DE SANTANDER,54125,CÁCOTA,Municipio,7.270560088,-72.652121526
54,NORTE DE SANTANDER,54128,CÁCHIRA,Municipio,7.684188896,-73.129394812
54,NORTE DE SANTANDER,54172,CHINÁCOTA,Municipio,7.583353136,-72.583909779
54,NORTE DE SANTANDER,54174,CHITAGÁ,Municipio,7.05161677,-72.525447458
54,NORTE DE SANTANDER,54206,CONVENCIÓN,Municipio,8.873159895,-73.200077686
54,NORTE DE SANTANDER,54223,CUCUTILLA,Municipio,7.502182366,-72.797034471
54,NORTE DE SANTANDER,54239,DURANIA,Municipio,7.746993206,-72.672080719
54,NORTE DE SANTANDER,54245,EL CARMEN,Municipio,8.867990035,-73.345859216
54,NORTE DE SANTANDER,54250,EL TARRA,Municipio,8.678263671,-73.031759698
54,NORTE DE SANTANDER,54261,EL ZULIA,Municipio,8.081200092,-72.631521176
54,NORTE DE SANTANDER,54313,GRAMALOTE,Municipio,7.906522991,-72.807055815
54,NORTE DE SANTANDER,54344,HACARÍ,Municipio,8.361831987,-73.078263298
54,NORTE DE SANTANDER,54347,HERRÁN,Municipio,7.493955781,-72.492699981
54,NORTE DE SANTANDER,54377,LABATECA,Municipio,7.218372474,-72.482815141
54,NORTE DE SANTANDER,54385,LA ESPERANZA,Municipio,7.695233593,-73.361396723
54,NORTE DE SANTANDER,54398,LA PLAYA,Municipio,8.256757875,-73.187893266
54,NORTE DE SANTANDER,54405,LOS PATIOS,Municipio,7.742291094,-72.526807835
54,NORTE DE SANTANDER,54418,LOURDES,Municipio,7.963712759,-72.846702903
54,NORTE DE SANTANDER,54480,MUTISCUA,Municipio,7.31694997,-72.768345835
54,NORTE DE SANTANDER,54498,OCAÑA,Municipio,8.206637527,-73.337650332
54,NORTE DE SANTANDER,54518,PAMPLONA,Municipio,7.379057623,-72.675903475
54,NORTE DE SANTANDER,54520,PAMPLONITA,Municipio,7.48287886,-72.635154009
54,NORTE DE SANTANDER,54553,PUERTO SANTANDER,Municipio,8.329138642,-72.411190655
54,NORTE DE SANTANDER,54599,RAGONVALIA,Municipio,7.595355974,-72.507566221
54,NORTE DE SANTANDER,54660,SALAZAR,Municipio,7.772747824,-72.867699587
54,NORTE DE SANTANDER,54670,SAN CALIXTO,Municipio,8.414441404,-73.217603803
54,NORTE DE SANTANDER,54673,SAN CAYETANO,Municipio,7.847872195,-72.609712034
54,NORTE DE SANTANDER,54680,SANTIAGO,Municipio,7.889234454,-72.718254104
54,NORTE DE SANTANDER,54720,SARDINATA,Municipio,8.215080767,-72.795809609
54,NORTE DE SANTANDER,54743,SILOS,Municipio,7.180991879,-72.786178841
54,NORTE DE SANTANDER,54800,TEORAMA,Municipio,8.760013794,-73.157140966
54,NORTE DE SANTANDER,54810,TIBÚ,Municipio,8.713507237,-72.79925855
54,NORTE DE SANTANDER,54820,TOLEDO,Municipio,7.225864961,-72.305934177
54,NORTE DE SANTANDER,54871,VILLA CARO,Municipio,7.936293173,-72.987594182
54,NORTE DE SANTANDER,54874,VILLA DEL ROSARIO,Municipio,7.718635863,-72.483611758
63,QUINDÍO,63001,ARMENIA,Municipio,4.499501128,-75.724899852
63,QUINDÍO,63111,BUENAVISTA,Municipio,4.366632382,-75.74403734
63,QUINDÍO,63130,CALARCÁ,Municipio,4.467879428,-75.65674719
63,QUINDÍO,63190,CIRCASIA,Municipio,4.604845344,-75.666884494
63,QUINDÍO,63212,CÓRDOBA,Municipio,4.395975176,-75.651323077
63,QUINDÍO,63272,FILANDIA,Municipio,4.669325347,-75.671469407
63,QUINDÍO,63302,GÉNOVA,Municipio,4.180107773,-75.760566947
63,QUINDÍO,63401,LA TEBAIDA,Municipio,4.426884849,-75.819273353
63,QUINDÍO,63470,MONTENEGRO,Municipio,4.521890945,-75.818065942
63,QUINDÍO,63548,PIJAO,Municipio,4.30397934,-75.683304171
63,QUINDÍO,63594,QUIMBAYA,Municipio,4.610273497,-75.792050869
63,QUINDÍO,63690,SALENTO,Municipio,4.611314654,-75.530921122
66,RISARALDA,66001,PEREIRA,Municipio,4.803662773,-75.795790934
66,RISARALDA,66045,APÍA,Municipio,5.139635357,-75.953538705
66,RISARALDA,66075,BALBOA,Municipio,4.918349676,-75.942753858
66,RISARALDA,66088,BELÉN DE UMBRÍA,Municipio,5.200398696,-75.867938933
66,RISARALDA,66170,DOSQUEBRADAS,Municipio,4.842021144,-75.669936549
66,RISARALDA,66318,GUÁTICA,Municipio,5.320295966,-75.804366589
66,RISARALDA,66383,LA CELIA,Municipio,4.988127679,-76.008226782
66,RISARALDA,66400,LA VIRGINIA,Municipio,4.904704187,-75.852081623
66,RISARALDA,66440,MARSELLA,Municipio,4.942936185,-75.753213896
66,RISARALDA,66456,MISTRATÓ,Municipio,5.414078141,-75.961353866
66,RISARALDA,66572,PUEBLO RICO,Municipio,5.286295408,-76.073594212
66,RISARALDA,66594,QUINCHÍA,Municipio,5.323906864,-75.713396832
66,RISARALDA,66682,SANTA ROSA DE CABAL,Municipio,4.833789828,-75.549501744
66,RISARALDA,66687,SANTUARIO,Municipio,5.076100313,-76.02286946
68,SANTANDER,68001,BUCARAMANGA,Municipio,7.155833544,-73.111569971
68,SANTANDER,68013,AGUADA,Municipio,6.182208476,-73.530385409
68,SANTANDER,68020,ALBANIA,Municipio,5.788190519,-73.792369285
68,SANTANDER,68051,ARATOCA,Municipio,6.716766585,-73.01162697
68,SANTANDER,68077,BARBOSA,Municipio,5.955617327,-73.623452292
68,SANTANDER,68079,BARICHARA,Municipio,6.647062543,-73.215184663
68,SANTANDER,68081,BARRANCABERMEJA,Municipio,7.054074558,-73.782116461
68,SANTANDER,68092,BETULIA,Municipio,7.033255886,-73.378723879
68,SANTANDER,68101,BOLÍVAR,Municipio,6.181715586,-73.920657034
68,SANTANDER,68121,CABRERA,Municipio,6.562543673,-73.250348922
68,SANTANDER,68132,CALIFORNIA,Municipio,7.331565443,-72.951318254
68,SANTANDER,68147,CAPITANEJO,Municipio,6.520200095,-72.674352026
68,SANTANDER,68152,CARCASÍ,Municipio,6.659675274,-72.569684339
68,SANTANDER,68160,CEPITÁ,Municipio,6.752465533,-72.92924629
68,SANTANDER,68162,CERRITO,Municipio,6.903923173,-72.645363244
68,SANTANDER,68167,CHARALÁ,Municipio,6.35099819,-73.061013821
68,SANTANDER,68169,CHARTA,Municipio,7.282973001,-72.978290565
68,SANTANDER,68176,CHIMA,Municipio,6.361627641,-73.401721444
68,SANTANDER,68179,CHIPATÁ,Municipio,6.067944658,-73.632391317
68,SANTANDER,68190,CIMITARRA,Municipio,6.40972961,-74.170304269
68,SANTANDER,68207,CONCEPCIÓN,Municipio,6.76062337,-72.618157347
68,SANTANDER,68209,CONFINES,Municipio,6.342314443,-73.25014013
68,SANTANDER,68211,CONTRATACIÓN,Municipio,6.303116611,-73.502115273
68,SANTANDER,68217,COROMORO,Municipio,6.234735779,-72.981768025
68,SANTANDER,68229,CURITÍ,Municipio,6.608966483,-73.05897888
68,SANTANDER,68235,EL CARMEN DE CHUCURÍ,Municipio,6.664260002,-73.564752876
68,SANTANDER,68245,EL GUACAMAYO,Municipio,6.236115743,-73.497760502
68,SANTANDER,68250,EL PEÑÓN,Municipio,6.123389691,-74.000403973
68,SANTANDER,68255,EL PLAYÓN,Municipio,7.524284721,-73.181581916
68,SANTANDER,68264,ENCINO,Municipio,6.079061224,-73.062066649
68,SANTANDER,68266,ENCISO,Municipio,6.65824115,-72.680279389
68,SANTANDER,68271,FLORIÁN,Municipio,5.801106291,-73.955249308
68,SANTANDER,68276,FLORIDABLANCA,Municipio,7.079704598,-73.067992503
68,SANTANDER,68296,GALÁN,Municipio,6.671810994,-73.324671243
68,SANTANDER,68298,GÁMBITA,Municipio,5.924383558,-73.319399336
68,SANTANDER,68307,GIRÓN,Municipio,6.976734127,-73.205267004
68,SANTANDER,68318,GUACA,Municipio,6.9434341,-72.823698733
68,SANTANDER,68320,GUADALUPE,Municipio,6.233278248,-73.409774453
68,SANTANDER,68322,GUAPOTÁ,Municipio,6.319299865,-73.331152752
68,SANTANDER,68324,GUAVATÁ,Municipio,5.944894844,-73.721736707
68,SANTANDER,68327,GÜEPSA,Municipio,6.04656148,-73.578478539
68,SANTANDER,68344,HATO,Municipio,6.559878299,-73.361788405
68,SANTANDER,68368,JESÚS MARÍA,Municipio,5.872705896,-73.789974186
68,SANTANDER,68370,JORDÁN,Municipio,6.710814846,-73.121123602
68,SANTANDER,68377,LA BELLEZA,Municipio,5.895724341,-74.046765754
68,SANTANDER,68385,LANDÁZURI,Municipio,6.385234814,-73.78760899
68,SANTANDER,68397,LA PAZ,Municipio,6.21737437,-73.629771951
68,SANTANDER,68406,LEBRIJA,Municipio,7.204060063,-73.291380974
68,SANTANDER,68418,LOS SANTOS,Municipio,6.812162934,-73.107850857
68,SANTANDER,68425,MACARAVITA,Municipio,6.513745303,-72.585364919
68,SANTANDER,68432,MÁLAGA,Municipio,6.720222349,-72.738410914
68,SANTANDER,68444,MATANZA,Municipio,7.348778319,-73.054389973
68,SANTANDER,68464,MOGOTES,Municipio,6.492532315,-72.958347724
68,SANTANDER,68468,MOLAGAVITA,Municipio,6.643290559,-72.819162739
68,SANTANDER,68498,OCAMONTE,Municipio,6.355368858,-73.122118331
68,SANTANDER,68500,OIBA,Municipio,6.225596216,-73.279615153
68,SANTANDER,68502,ONZAGA,Municipio,6.335194548,-72.812058376
68,SANTANDER,68522,PALMAR,Municipio,6.525876964,-73.282473371
68,SANTANDER,68524,PALMAS DEL SOCORRO,Municipio,6.391750107,-73.282731743
68,SANTANDER,68533,PÁRAMO,Municipio,6.416631131,-73.171482319
68,SANTANDER,68547,PIEDECUESTA,Municipio,6.97082104,-73.014811964
68,SANTANDER,68549,PINCHOTE,Municipio,6.513892626,-73.175709863
68,SANTANDER,68572,PUENTE NACIONAL,Municipio,5.831129906,-73.678418153
68,SANTANDER,68573,PUERTO PARRA,Municipio,6.685278856,-73.957612558
68,SANTANDER,68575,PUERTO WILCHES,Municipio,7.398198257,-73.835469604
68,SANTANDER,68615,RIONEGRO,Municipio,7.474226085,-73.372464172
68,SANTANDER,68655,SABANA DE TORRES,Municipio,7.4065422,-73.571318074
68,SANTANDER,68669,SAN ANDRÉS,Municipio,6.796483063,-72.816132023
68,SANTANDER,68673,SAN BENITO,Municipio,6.076525355,-73.552953018
68,SANTANDER,68679,SAN GIL,Municipio,6.550778765,-73.118879111
68,SANTANDER,68682,SAN JOAQUÍN,Municipio,6.459879823,-72.85471883
68,SANTANDER,68684,SAN JOSÉ DE MIRANDA,Municipio,6.629400185,-72.739764227
68,SANTANDER,68686,SAN MIGUEL,Municipio,6.568121541,-72.643224968
68,SANTANDER,68689,SAN VICENTE DE CHUCURÍ,Municipio,6.894292346,-73.539003336
68,SANTANDER,68705,SANTA BÁRBARA,Municipio,6.988084711,-72.896089334
68,SANTANDER,68720,SANTA HELENA DEL OPÓN,Municipio,6.40890734,-73.582066089
68,SANTANDER,68745,SIMACOTA,Municipio,6.494231551,-73.459109916
68,SANTANDER,68755,SOCORRO,Municipio,6.462088241,-73.244360009
68,SANTANDER,68770,SUAITA,Municipio,6.101499739,-73.362257946
68,SANTANDER,68773,SUCRE,Municipio,5.983203734,-73.959362354
68,SANTANDER,68780,SURATÁ,Municipio,7.475402063,-72.987799659
68,SANTANDER,68820,TONA,Municipio,7.170891099,-72.939704433
68,SANTANDER,68855,VALLE DE SAN JOSÉ,Municipio,6.434578919,-73.10997171
68,SANTANDER,68861,VÉLEZ,Municipio,6.00741043,-73.690572558
68,SANTANDER,68867,VETAS,Municipio,7.322219563,-72.881569005
68,SANTANDER,68872,VILLANUEVA,Municipio,6.685867326,-73.16396916
68,SANTANDER,68895,ZAPATOCA,Municipio,6.813725566,-73.309750443
70,SUCRE,70001,SINCELEJO,Municipio,9.316673928,-75.431749665
70,SUCRE,70110,BUENAVISTA,Municipio,9.314972282,-74.980140573
70,SUCRE,70124,CAIMITO,Municipio,8.792311599,-75.131910629
70,SUCRE,70204,COLOSÓ,Municipio,9.494043427,-75.345286931
70,SUCRE,70215,COROZAL,Municipio,9.160624283,-75.238581777
70,SUCRE,70221,COVEÑAS,Municipio,9.394449802,-75.6574915
70,SUCRE,70230,CHALÁN,Municipio,9.569584598,-75.324209075
70,SUCRE,70233,EL ROBLE,Municipio,9.036231591,-75.145750378
70,SUCRE,70235,GALERAS,Municipio,9.135169096,-74.981347057
70,SUCRE,70265,GUARANDA,Municipio,8.337828523,-74.687349255
70,SUCRE,70400,LA UNIÓN,Municipio,8.811997799,-75.283222116
70,SUCRE,70418,LOS PALMITOS,Municipio,9.422380117,-75.21302191
70,SUCRE,70429,MAJAGUAL,Municipio,8.546148134,-74.710378834
70,SUCRE,70473,MORROA,Municipio,9.392496685,-75.327187442
70,SUCRE,70508,OVEJAS,Municipio,9.549655271,-75.188559161
70,SUCRE,70523,PALMITO,Municipio,9.334940293,-75.561990273
70,SUCRE,70670,SAMPUÉS,Municipio,9.165188649,-75.360274217
70,SUCRE,70678,SAN BENITO ABAD,Municipio,8.835634919,-74.964693983
70,SUCRE,70702,SAN JUAN DE BETULIA,Municipio,9.292019071,-75.213635785
70,SUCRE,70708,SAN MARCOS,Municipio,8.589220102,-75.172499549
70,SUCRE,70713,SAN ONOFRE,Municipio,9.814599536,-75.505229192
70,SUCRE,70717,SAN PEDRO,Municipio,9.396835638,-75.037418148
70,SUCRE,70742,SAN LUIS DE SINCÉ,Municipio,9.256299047,-75.093970889
70,SUCRE,70771,SUCRE,Municipio,8.814333477,-74.747531312
70,SUCRE,70820,SANTIAGO DE TOLÚ,Municipio,9.533810567,-75.535434694
70,SUCRE,70823,SAN JOSÉ DE TOLUVIEJO,Municipio,9.490297716,-75.444511154
73,TOLIMA,73001,IBAGUÉ,Municipio,4.451921427,-75.252590995
73,TOLIMA,73024,ALPUJARRA,Municipio,3.390015064,-74.940782325
73,TOLIMA,73026,ALVARADO,Municipio,4.582625784,-74.986306856
73,TOLIMA,73030,AMBALEMA,Municipio,4.803365246,-74.80998676
73,TOLIMA,73043,ANZOÁTEGUI,Municipio,4.623390454,-75.201654227
73,TOLIMA,73055,ARMERO,Municipio,5.006758956,-74.847500949
73,TOLIMA,73067,ATACO,Municipio,3.37749064,-75.613732571
73,TOLIMA,73124,CAJAMARCA,Municipio,4.406971283,-75.497459183
73,TOLIMA,73148,CARMEN DE APICALÁ,Municipio,4.123416795,-74.747002457
73,TOLIMA,73152,CASABIANCA,Municipio,5.007003948,-75.194577027
73,TOLIMA,73168,CHAPARRAL,Municipio,3.743693084,-75.589866342
73,TOLIMA,73200,COELLO,Municipio,4.315603867,-74.914702557
73,TOLIMA,73217,COYAIMA,Municipio,3.775490271,-75.147202131
73,TOLIMA,73226,CUNDAY,Municipio,3.98252395,-74.689369077
73,TOLIMA,73236,DOLORES,Municipio,3.597863274,-74.802566735
73,TOLIMA,73268,ESPINAL,Municipio,4.166476969,-74.893529408
73,TOLIMA,73270,FALAN,Municipio,5.079256598,-74.957033717
73,TOLIMA,73275,FLANDES,Municipio,4.242813257,-74.837086379
73,TOLIMA,73283,FRESNO,Municipio,5.186694812,-75.052289947
73,TOLIMA,73319,GUAMO,Municipio,4.076501341,-74.97657287
73,TOLIMA,73347,HERVEO,Municipio,5.068553783,-75.243229587
73,TOLIMA,73349,HONDA,Municipio,5.179416561,-74.783030938
73,TOLIMA,73352,ICONONZO,Municipio,4.133276369,-74.539642569
73,TOLIMA,73408,LÉRIDA,Municipio,4.866034592,-74.923371784
73,TOLIMA,73411,LÍBANO,Municipio,4.877936755,-75.047630757
73,TOLIMA,73443,SAN SEBASTIÁN DE MARIQUITA,Municipio,5.235322593,-74.906680891
73,TOLIMA,73449,MELGAR,Municipio,4.193215498,-74.605174974
73,TOLIMA,73461,MURILLO,Municipio,4.826734468,-75.219939865
73,TOLIMA,73483,NATAGAIMA,Municipio,3.540518203,-75.122009994
73,TOLIMA,73504,ORTEGA,Municipio,3.937793962,-75.278243144
73,TOLIMA,73520,PALOCABILDO,Municipio,5.094035737,-75.018450495
73,TOLIMA,73547,PIEDRAS,Municipio,4.433764446,-74.99879938
73,TOLIMA,73555,PLANADAS,Municipio,3.09897343,-75.81684413
73,TOLIMA,73563,PRADO,Municipio,3.729166649,-74.872477056
73,TOLIMA,73585,PURIFICACIÓN,Municipio,3.854281614,-74.874511547
73,TOLIMA,73616,RIOBLANCO,Municipio,3.468077548,-75.854811025
73,TOLIMA,73622,RONCESVALLES,Municipio,4.097861181,-75.594280268
73,TOLIMA,73624,ROVIRA,Municipio,4.216730954,-75.347583635
73,TOLIMA,73671,SALDAÑA,Municipio,3.912542787,-75.018597615
73,TOLIMA,73675,SAN ANTONIO,Municipio,3.926088268,-75.509910041
73,TOLIMA,73678,SAN LUIS,Municipio,4.057271684,-75.163208055
73,TOLIMA,73686,SANTA ISABEL,Municipio,4.740827622,-75.200699463
73,TOLIMA,73770,SUÁREZ,Municipio,3.969210629,-74.844487379
73,TOLIMA,73854,VALLE DE SAN JUAN,Municipio,4.182125647,-75.171482368
73,TOLIMA,73861,VENADILLO,Municipio,4.70988172,-74.920898857
73,TOLIMA,73870,VILLAHERMOSA,Municipio,4.965753461,-75.155929691
73,TOLIMA,73873,VILLARRICA,Municipio,3.854384097,-74.618966231
76,VALLE DEL CAUCA,76001,SANTIAGO DE CALI,Municipio,3.399043723,-76.576492589
76,VALLE DEL CAUCA,76020,ALCALÁ,Municipio,4.6788971,-75.782979317
76,VALLE DEL CAUCA,76036,ANDALUCÍA,Municipio,4.153314228,-76.160633411
76,VALLE DEL CAUCA,76041,ANSERMANUEVO,Municipio,4.795927292,-76.029630488
76,VALLE DEL CAUCA,76054,ARGELIA,Municipio,4.704287864,-76.141649985
76,VALLE DEL CAUCA,76100,BOLÍVAR,Municipio,4.393118861,-76.349820385
76,VALLE DEL CAUCA,76109,BUENAVENTURA,Municipio,3.493340766,-77.118728315
76,VALLE DEL CAUCA,76111,GUADALAJARA DE BUGA,Municipio,3.819854318,-75.983124185
76,VALLE DEL CAUCA,76113,BUGALAGRANDE,Municipio,4.196852991,-76.089610303
76,VALLE DEL CAUCA,76122,CAICEDONIA,Municipio,4.308997973,-75.836725668
76,VALLE DEL CAUCA,76126,CALIMA,Municipio,3.923271619,-76.642604838
76,VALLE DEL CAUCA,76130,CANDELARIA,Municipio,3.382091564,-76.383176631
76,VALLE DEL CAUCA,76147,CARTAGO,Municipio,4.70684716,-75.917908459
76,VALLE DEL CAUCA,76233,DAGUA,Municipio,3.649822218,-76.720393465
76,VALLE DEL CAUCA,76243,EL ÁGUILA,Municipio,4.917562873,-76.066010008
76,VALLE DEL CAUCA,76246,EL CAIRO,Municipio,4.756063701,-76.215028258
76,VALLE DEL CAUCA,76248,EL CERRITO,Municipio,3.656072873,-76.308417837
76,VALLE DEL CAUCA,76250,EL DOVIO,Municipio,4.539979729,-76.287627013
76,VALLE DEL CAUCA,76275,FLORIDA,Municipio,3.304104295,-76.164773067
76,VALLE DEL CAUCA,76306,GINEBRA,Municipio,3.74410441,-76.19082004
76,VALLE DEL CAUCA,76318,GUACARÍ,Municipio,3.759414991,-76.345182773
76,VALLE DEL CAUCA,76364,JAMUNDÍ,Municipio,3.213892389,-76.627604178
76,VALLE DEL CAUCA,76377,LA CUMBRE,Municipio,3.694303106,-76.589899052
76,VALLE DEL CAUCA,76400,LA UNIÓN,Municipio,4.537937391,-76.103289827
76,VALLE DEL CAUCA,76403,LA VICTORIA,Municipio,4.483511142,-75.966773027
76,VALLE DEL CAUCA,76497,OBANDO,Municipio,4.597588666,-75.949199698
76,VALLE DEL CAUCA,76520,PALMIRA,Municipio,3.558392876,-76.227799721
76,VALLE DEL CAUCA,76563,PRADERA,Municipio,3.42063665,-76.178418412
76,VALLE DEL CAUCA,76606,RESTREPO,Municipio,3.806494973,-76.534898533
76,VALLE DEL CAUCA,76616,RIOFRÍO,Municipio,4.109500298,-76.371054433
76,VALLE DEL CAUCA,76622,ROLDANILLO,Municipio,4.443571848,-76.168242493
76,VALLE DEL CAUCA,76670,SAN PEDRO,Municipio,3.98143244,-76.208361678
76,VALLE DEL CAUCA,76736,SEVILLA,Municipio,4.193411919,-75.888181633
76,VALLE DEL CAUCA,76823,TORO,Municipio,4.638421279,-76.081061761
76,VALLE DEL CAUCA,76828,TRUJILLO,Municipio,4.233268116,-76.342926988
76,VALLE DEL CAUCA,76834,TULUÁ,Municipio,4.02840797,-76.032503793
76,VALLE DEL CAUCA,76845,ULLOA,Municipio,4.707718947,-75.778359026
76,VALLE DEL CAUCA,76863,VERSALLES,Municipio,4.644242641,-76.259244825
76,VALLE DEL CAUCA,76869,VIJES,Municipio,3.74365889,-76.470647175
76,VALLE DEL CAUCA,76890,YOTOCO,Municipio,3.904130354,-76.390804349
76,VALLE DEL CAUCA,76892,YUMBO,Municipio,3.595913669,-76.5109879
76,VALLE DEL CAUCA,76895,ZARZAL,Municipio,4.35359875,-76.050653363
81,ARAUCA,81001,ARAUCA,Municipio,6.796280825,-70.509211529
81,ARAUCA,81065,ARAUQUITA,Municipio,6.799338394,-71.298274293
81,ARAUCA,81220,CRAVO NORTE,Municipio,6.39654349,-70.073811966
81,ARAUCA,81300,FORTUL,Municipio,6.750907234,-71.791242408
81,ARAUCA,81591,PUERTO RONDÓN,Municipio,6.411761829,-70.966789642
81,ARAUCA,81736,SARAVENA,Municipio,6.906941714,-71.850707567
81,ARAUCA,81794,TAME,Municipio,6.390650479,-71.791786468
85,CASANARE,85001,YOPAL,Municipio,5.242744761,-72.25802857
85,CASANARE,85010,AGUAZUL,Municipio,5.126121886,-72.548210167
85,CASANARE,85015,CHÁMEZA,Municipio,5.228453404,-72.864968036
85,CASANARE,85125,HATO COROZAL,Municipio,6.03948032,-71.524457518
85,CASANARE,85136,LA SALINA,Municipio,6.178282373,-72.346933772
85,CASANARE,85139,MANÍ,Municipio,4.675769488,-72.212802727
85,CASANARE,85162,MONTERREY,Municipio,4.841308642,-72.847343398
85,CASANARE,85225,NUNCHÍA,Municipio,5.529181235,-72.092519371
85,CASANARE,85230,OROCUÉ,Municipio,4.915139133,-71.598739657
85,CASANARE,85250,PAZ DE ARIPORO,Municipio,5.779915281,-70.86947037
85,CASANARE,85263,PORE,Municipio,5.663194953,-71.925808058
85,CASANARE,85279,RECETOR,Municipio,5.263068507,-72.770818307
85,CASANARE,85300,SABANALARGA,Municipio,4.81119011,-72.99580655
85,CASANARE,85315,SÁCAMA,Municipio,6.049906435,-72.210761632
85,CASANARE,85325,SAN LUIS DE PALENQUE,Municipio,5.274955665,-71.817492757
85,CASANARE,85400,TÁMARA,Municipio,5.878927424,-72.200678221
85,CASANARE,85410,TAURAMENA,Municipio,4.697463691,-72.629224357
85,CASANARE,85430,TRINIDAD,Municipio,5.354527091,-71.254795186
85,CASANARE,85440,VILLANUEVA,Municipio,4.528307719,-72.82314281
86,PUTUMAYO,86001,MOCOA,Municipio,1.26070915,-76.665843491
86,PUTUMAYO,86219,COLÓN,Municipio,1.204815876,-76.973768047
86,PUTUMAYO,86320,ORITO,Municipio,0.673756323,-76.943139229
86,PUTUMAYO,86568,PUERTO ASÍS,Municipio,0.433884539,-76.521582034
86,PUTUMAYO,86569,PUERTO CAICEDO,Municipio,0.70416861,-76.498644148
86,PUTUMAYO,86571,PUERTO GUZMÁN,Municipio,0.746432215,-75.880229785
86,PUTUMAYO,86573,PUERTO LEGUÍZAMO,Municipio,0.0594719700001,-75.064793271
86,PUTUMAYO,86749,SIBUNDOY,Municipio,1.228746922,-76.913075854
86,PUTUMAYO,86755,SAN FRANCISCO,Municipio,1.136071096,-76.847266606
86,PUTUMAYO,86757,SAN MIGUEL,Municipio,0.272449048,-76.845104586
86,PUTUMAYO,86760,SANTIAGO,Municipio,1.036021482,-76.977516835
86,PUTUMAYO,86865,VALLE DEL GUAMUEZ,Municipio,0.42012589,-76.770670262
86,PUTUMAYO,86885,VILLAGARZÓN,Municipio,0.911149515,-76.744954473
88,"ARCHIPIÉLAGO DE SAN ANDRÉS, PROVIDENCIA Y SANTA CATALINA",88001,SAN ANDRÉS **,Isla,12.543115116,-81.717623824
88,"ARCHIPIÉLAGO DE SAN ANDRÉS, PROVIDENCIA Y SANTA CATALINA",88564,PROVIDENCIA,Municipio,13.3511096,-81.373885489
91,AMAZONAS,91001,LETICIA,Municipio,-3.530058784,-70.04513691
91,AMAZONAS,91263,EL ENCANTO,Área no municipalizada,-1.997234795,-72.723615655
91,AMAZONAS,91405,LA CHORRERA,Área no municipalizada,-1.509799605,-72.444429655
91,AMAZONAS,91407,LA PEDRERA,Área no municipalizada,-1.550256503,-69.946028145
91,AMAZONAS,91430,LA VICTORIA,Área no municipalizada,-0.125016381,-71.104878047
91,AMAZONAS,91460,MIRITÍ - PARANÁ,Área no municipalizada,-0.687037553,-71.185504598
91,AMAZONAS,91530,PUERTO ALEGRÍA,Área no municipalizada,-0.952145073,-73.757227478
91,AMAZONAS,91536,PUERTO ARICA,Área no municipalizada,-1.91085406,-71.148404895
91,AMAZONAS,91540,PUERTO NARIÑO,Municipio,-3.631323222,-70.471990393
91,AMAZONAS,91669,PUERTO SANTANDER,Área no municipalizada,-1.101032624,-71.938933582
91,AMAZONAS,91798,TARAPACÁ,Área no municipalizada,-2.451794264,-70.006515353
94,GUAINÍA,94001,INÍRIDA,Municipio,3.516363079,-68.008347279
94,GUAINÍA,94343,BARRANCOMINAS,Municipio,3.140558454,-69.697134231
94,GUAINÍA,94883,SAN FELIPE,Área no municipalizada,2.312179782,-67.520605688
94,GUAINÍA,94884,PUERTO COLOMBIA,Área no municipalizada,2.582829542,-68.257990327
94,GUAINÍA,94885,LA GUADALUPE,Área no municipalizada,1.404540273,-67.001518001
94,GUAINÍA,94886,CACAHUAL,Área no municipalizada,3.38616245,-67.585079984
94,GUAINÍA,94887,PANA PANA,Área no municipalizada,1.981055294,-69.114400356
94,GUAINÍA,94888,MORICHAL,Área no municipalizada,2.421444806,-69.84001585
95,GUAVIARE,95001,SAN JOSÉ DEL GUAVIARE,Municipio,2.484286091,-71.919169926
95,GUAVIARE,95015,CALAMAR,Municipio,1.613634284,-73.0342639
95,GUAVIARE,95025,EL RETORNO,Municipio,2.143447362,-72.243648687
95,GUAVIARE,95200,MIRAFLORES,Municipio,1.363974932,-72.018109505
97,VAUPÉS,97001,MITÚ,Municipio,1.06148231,-70.46688401
97,VAUPÉS,97161,CARURÚ,Municipio,1.052762314,-71.33093035
97,VAUPÉS,97511,PACOA,Área no municipalizada,-0.00834363999996,-70.543306099
97,VAUPÉS,97666,TARAIRA,Municipio,-0.719822209,-69.907762015
97,VAUPÉS,97777,PAPUNAHUA,Área no municipalizada,1.569312273,-70.911663147
97,VAUPÉS,97889,YAVARATÉ,Área no municipalizada,0.833312241,-69.618677544
99,VICHADA,99001,PUERTO CARREÑO,Municipio,5.836529669,-68.141222336
99,VICHADA,99524,LA PRIMAVERA,Municipio,5.517593607,-69.620440535
99,VICHADA,99624,SANTA ROSALÍA,Municipio,4.968581012,-70.659970968
99,VICHADA,99773,CUMARIBO,Municipio,4.262454746,-69.521404835
